{
"type": "FeatureCollection",
"name": "clipped_healthcare",
"crs": { "type": "name", "properties": { "name": "urn:ogc:def:crs:OGC:1.3:CRS84" } },
"features": [
{ "type": "Feature", "properties": { "OBJECTID": 2779, "FAC_NAME": "US ARMY HOSPITAL (COH5OF)", "NAME": "U S ARMY HOSPITAL", "ADDRESS": "FORT CARSON ARMY BASE", "CITY_STATE": "FORT CARSON, CO   80913", "CITY": "FORT CARSON", "STATE": "CO", "ZIP": "80913", "OPERATING_": "01-ACTIVE", "MEDICARE": "Y", "MEDICARE_I": "06003F", "MEDICAID": "N", "MEDICAID_I": null, "CERTIFIED_": "0\/0", "COUNTY": "EL PASO", "ADMIN": null, "PHONE": "(719) 000-0000", "EMERGENCY_": null, "EMERGENC_1": null, "EMERGENC_2": null, "EMERGENC_3": null, "DATE_GEOCO": "March 2020", "SOURCE": "CDPHE Health Facilities and Emergency Medical Services Division", "GEO_TRACT": "08041004403", "GEO_COUNTY": "EL PASO", "GEO_ZIP": "80913", "FACTYPE": "Hospital - non participating", "SYMBOL": "Hospital", "Latitude": 38.718858, "Longitude": -104.796686, "TYPE": "HOSP-NP" }, "geometry": { "type": "MultiPoint", "coordinates": [ [ -104.79668599961748, 38.718858000299313 ] ] } },
{ "type": "Feature", "properties": { "OBJECTID": 1208, "FAC_NAME": "Colorado Coalition for the Homeless (CO061922)", "NAME": "WEST END HEALTH CENTER", "ADDRESS": "5050 WEST COLFAX AVENUE", "CITY_STATE": "DENVER, CO   80204", "CITY": "DENVER", "STATE": "CO", "ZIP": "80204", "OPERATING_": "01-ACTIVE", "MEDICARE": "Y", "MEDICARE_I": "061922", "MEDICAID": "N", "MEDICAID_I": null, "CERTIFIED_": "0\/0", "COUNTY": "DENVER", "ADMIN": null, "PHONE": "(303) 312-9750", "EMERGENCY_": null, "EMERGENC_1": null, "EMERGENC_2": null, "EMERGENC_3": null, "DATE_GEOCO": "March 2020", "SOURCE": "CDPHE Health Facilities and Emergency Medical Services Division", "GEO_TRACT": "08031000701", "GEO_COUNTY": "DENVER", "GEO_ZIP": "80204", "FACTYPE": "Federally Qualified Health Center", "SYMBOL": "FQHC", "Latitude": 39.740265, "Longitude": -105.051613, "TYPE": "FQHC" }, "geometry": { "type": "MultiPoint", "coordinates": [ [ -105.05161300025118, 39.740265000293043 ] ] } },
{ "type": "Feature", "properties": { "OBJECTID": 3523, "FAC_NAME": "CENTURA HEALTH EMERGENCY & URGENT CARE-AVON (18K996)", "NAME": "CENTURA HEALTH EMERGENCY & URGENT CARE-AVON", "ADDRESS": "50 BUCK CREEK RD, STE 100", "CITY_STATE": "AVON, CO   81620", "CITY": "AVON", "STATE": "CO", "ZIP": "81620", "OPERATING_": "01-ACTIVE", "MEDICARE": "N", "MEDICARE_I": null, "MEDICAID": "N", "MEDICAID_I": null, "CERTIFIED_": "0\/0", "COUNTY": "EAGLE", "ADMIN": "Ms DEBRA CARPENTER", "PHONE": "(970) 668-7000", "EMERGENCY_": null, "EMERGENC_1": null, "EMERGENC_2": "(970) 668-7001", "EMERGENC_3": "clohr@larkingroup.com", "DATE_GEOCO": "March 2020", "SOURCE": "CDPHE Health Facilities and Emergency Medical Services Division", "GEO_TRACT": "08037000503", "GEO_COUNTY": "EAGLE", "GEO_ZIP": "81620", "FACTYPE": "Community Clinic\/Emergency", "SYMBOL": "Clinic", "Latitude": 39.640102, "Longitude": -106.522621, "TYPE": "CCEC" }, "geometry": { "type": "MultiPoint", "coordinates": [ [ -106.522621000135914, 39.640102000302029 ] ] } },
{ "type": "Feature", "properties": { "OBJECTID": 3525, "FAC_NAME": "Mountain Family Health Centers (061975)", "NAME": "MOUNTAIN FAMILY HEALTH CENTERS - AVON SBC", "ADDRESS": "0850 WEST BEAVER CREEK BLVD", "CITY_STATE": "AVON, CO   81620", "CITY": "AVON", "STATE": "CO", "ZIP": "81620", "OPERATING_": "01-ACTIVE", "MEDICARE": "Y", "MEDICARE_I": "061975", "MEDICAID": "N", "MEDICAID_I": null, "CERTIFIED_": "0\/0", "COUNTY": "EAGLE", "ADMIN": null, "PHONE": "(970) 945-2840", "EMERGENCY_": "Annette Franta", "EMERGENC_1": null, "EMERGENC_2": null, "EMERGENC_3": "afranta@mountainfamily.org", "DATE_GEOCO": "March 2020", "SOURCE": "CDPHE Health Facilities and Emergency Medical Services Division", "GEO_TRACT": "08037000503", "GEO_COUNTY": "EAGLE", "GEO_ZIP": "81620", "FACTYPE": "Federally Qualified Health Center", "SYMBOL": "FQHC", "Latitude": 39.638733, "Longitude": -106.534592, "TYPE": "FQHC" }, "geometry": { "type": "MultiPoint", "coordinates": [ [ -106.534591999917751, 39.638732999777048 ] ] } },
{ "type": "Feature", "properties": { "OBJECTID": 95, "FAC_NAME": "Metro Community Provider Network, Inc. (CO061929)", "NAME": "M C P N - CHAMBERS CLINIC AT AUMHC", "ADDRESS": "791 CHAMBERS ROAD", "CITY_STATE": "AURORA, CO   80011", "CITY": "AURORA", "STATE": "CO", "ZIP": "80011", "OPERATING_": "01-ACTIVE", "MEDICARE": "Y", "MEDICARE_I": "061929", "MEDICAID": "N", "MEDICAID_I": null, "CERTIFIED_": "0\/0", "COUNTY": "ADAMS", "ADMIN": null, "PHONE": "(303) 761-1977", "EMERGENCY_": null, "EMERGENC_1": null, "EMERGENC_2": null, "EMERGENC_3": "dave.myers@mcpn.org", "DATE_GEOCO": "March 2020", "SOURCE": "CDPHE Health Facilities and Emergency Medical Services Division", "GEO_TRACT": "08005081800", "GEO_COUNTY": "ARAPAHOE", "GEO_ZIP": "80011", "FACTYPE": "Federally Qualified Health Center", "SYMBOL": "FQHC", "Latitude": 39.727432, "Longitude": -104.810356, "TYPE": "FQHC" }, "geometry": { "type": "MultiPoint", "coordinates": [ [ -104.810356000164177, 39.727432000058663 ] ] } },
{ "type": "Feature", "properties": { "OBJECTID": 109, "FAC_NAME": "Metro Community Provider Newwork,inc (CO2216896)", "NAME": "HELENA CLINIC", "ADDRESS": "15501 13TH AVENUE", "CITY_STATE": "AURORA, CO   80011", "CITY": "AURORA", "STATE": "CO", "ZIP": "80011", "OPERATING_": "01-ACTIVE", "MEDICARE": "Y", "MEDICARE_I": "061935", "MEDICAID": "N", "MEDICAID_I": null, "CERTIFIED_": "0\/0", "COUNTY": "ADAMS", "ADMIN": null, "PHONE": "(303) 761-1977", "EMERGENCY_": "David Myers", "EMERGENC_1": null, "EMERGENC_2": null, "EMERGENC_3": "dave.myers@mcpn.org", "DATE_GEOCO": "March 2020", "SOURCE": "CDPHE Health Facilities and Emergency Medical Services Division", "GEO_TRACT": "08005081900", "GEO_COUNTY": "ARAPAHOE", "GEO_ZIP": "80011", "FACTYPE": "Federally Qualified Health Center", "SYMBOL": "FQHC", "Latitude": 39.73745, "Longitude": -104.807655, "TYPE": "FQHC" }, "geometry": { "type": "MultiPoint", "coordinates": [ [ -104.807654999666781, 39.7374499999625 ] ] } },
{ "type": "Feature", "properties": { "OBJECTID": 3184, "FAC_NAME": "Valley Wide Health Systems, Inc. - Convenient Care Community Clinic (CO061902)", "NAME": "V W H S - CONVENIENT CARE COMMUNITY CLINIC", "ADDRESS": "1131 MAIN STREET", "CITY_STATE": "ALAMOSA, CO   81101", "CITY": "ALAMOSA", "STATE": "CO", "ZIP": "81101", "OPERATING_": "01-ACTIVE", "MEDICARE": "Y", "MEDICARE_I": "061902", "MEDICAID": "N", "MEDICAID_I": null, "CERTIFIED_": "0\/0", "COUNTY": "ALAMOSA", "ADMIN": null, "PHONE": "(719) 589-2562", "EMERGENCY_": null, "EMERGENC_1": null, "EMERGENC_2": "(719) 589-0546", "EMERGENC_3": null, "DATE_GEOCO": "March 2020", "SOURCE": "CDPHE Health Facilities and Emergency Medical Services Division", "GEO_TRACT": "08003960200", "GEO_COUNTY": "ALAMOSA", "GEO_ZIP": "81101", "FACTYPE": "Federally Qualified Health Center", "SYMBOL": "FQHC", "Latitude": 37.468224, "Longitude": -105.873299, "TYPE": "FQHC" }, "geometry": { "type": "MultiPoint", "coordinates": [ [ -105.873299000143732, 37.468224000262126 ] ] } },
{ "type": "Feature", "properties": { "OBJECTID": 1527, "FAC_NAME": "MCPN - STEIN KIDS CLINIC (CODF4E)", "NAME": "M C P N - STEIN KIDS CLINIC", "ADDRESS": "80 SOUTH TELLER", "CITY_STATE": "LAKEWOOD, CO   80226", "CITY": "LAKEWOOD", "STATE": "CO", "ZIP": "80226", "OPERATING_": "01-ACTIVE", "MEDICARE": "Y", "MEDICARE_I": "061889", "MEDICAID": "N", "MEDICAID_I": null, "CERTIFIED_": "0\/0", "COUNTY": "JEFFERSON", "ADMIN": null, "PHONE": "(303) 238-4662", "EMERGENCY_": null, "EMERGENC_1": null, "EMERGENC_2": null, "EMERGENC_3": null, "DATE_GEOCO": "March 2020", "SOURCE": "CDPHE Health Facilities and Emergency Medical Services Division", "GEO_TRACT": "08059011602", "GEO_COUNTY": "JEFFERSON", "GEO_ZIP": "80226", "FACTYPE": "Federally Qualified Health Center", "SYMBOL": "FQHC", "Latitude": 39.715775, "Longitude": -105.076767, "TYPE": "FQHC" }, "geometry": { "type": "MultiPoint", "coordinates": [ [ -105.076766999609674, 39.715774999875421 ] ] } },
{ "type": "Feature", "properties": { "OBJECTID": 1532, "FAC_NAME": "SWEDISH MEDICAL CENTER BELMAR ER (18O244)", "NAME": "SWEDISH MEDICAL CENTER BELMAR ER", "ADDRESS": "260 S WADSWORTH BLVD", "CITY_STATE": "LAKEWOOD, CO   80226", "CITY": "LAKEWOOD", "STATE": "CO", "ZIP": "80226", "OPERATING_": "01-ACTIVE", "MEDICARE": "N", "MEDICARE_I": null, "MEDICAID": "N", "MEDICAID_I": null, "CERTIFIED_": "0\/8", "COUNTY": "JEFFERSON", "ADMIN": "RICHARD HAMMETT", "PHONE": "(720) 417-7200", "EMERGENCY_": "Suzie Ruhs", "EMERGENC_1": "(303) 788-6684", "EMERGENC_2": "(720) 417-7211", "EMERGENC_3": "richard.hammett@healthonecares.com", "DATE_GEOCO": "March 2020", "SOURCE": "CDPHE Health Facilities and Emergency Medical Services Division", "GEO_TRACT": "08059011602", "GEO_COUNTY": "JEFFERSON", "GEO_ZIP": "80226", "FACTYPE": "Community Clinic\/Emergency", "SYMBOL": "Clinic", "Latitude": 39.712181, "Longitude": -105.081322, "TYPE": "CCEC" }, "geometry": { "type": "MultiPoint", "coordinates": [ [ -105.081321999784279, 39.712180999766673 ] ] } },
{ "type": "Feature", "properties": { "OBJECTID": 102, "FAC_NAME": "KINDRED HOSPITAL AURORA (0104HY)", "NAME": "KINDRED HOSPITAL AURORA", "ADDRESS": "700 POTOMAC ST FL 2", "CITY_STATE": "AURORA, CO   80011", "CITY": "AURORA", "STATE": "CO", "ZIP": "80011", "OPERATING_": "01-ACTIVE", "MEDICARE": "Y", "MEDICARE_I": "062013", "MEDICAID": "Y", "MEDICAID_I": "5025002", "CERTIFIED_": "37\/37", "COUNTY": "ADAMS", "ADMIN": "Mr MARC LEMON", "PHONE": "(720) 857-8333", "EMERGENCY_": "Marc Lemon", "EMERGENC_1": "(352) 207-8762", "EMERGENC_2": "(720) 857-6134", "EMERGENC_3": "mark.lemon@kindred.com", "DATE_GEOCO": "March 2020", "SOURCE": "CDPHE Health Facilities and Emergency Medical Services Division", "GEO_TRACT": "08005007600", "GEO_COUNTY": "ARAPAHOE", "GEO_ZIP": "80011", "FACTYPE": "Long Term Hospital", "SYMBOL": "Long Term Care Hospital", "Latitude": 39.727409, "Longitude": -104.828247, "TYPE": "HOSP-LT" }, "geometry": { "type": "MultiPoint", "coordinates": [ [ -104.828247000076288, 39.727408999683448 ] ] } },
{ "type": "Feature", "properties": { "OBJECTID": 105, "FAC_NAME": "M C P N - Potomac Street Health Center (CO061901)", "NAME": "M C P N - POTOMAC STREET HEALTH CENTER", "ADDRESS": "700 POTOMAC STREET, SUITE A", "CITY_STATE": "AURORA, CO   80011", "CITY": "AURORA", "STATE": "CO", "ZIP": "80011", "OPERATING_": "01-ACTIVE", "MEDICARE": "Y", "MEDICARE_I": "061901", "MEDICAID": "N", "MEDICAID_I": null, "CERTIFIED_": "0\/0", "COUNTY": "ADAMS", "ADMIN": null, "PHONE": "(303) 360-3712", "EMERGENCY_": null, "EMERGENC_1": null, "EMERGENC_2": "(303) 360-3713", "EMERGENC_3": null, "DATE_GEOCO": "March 2020", "SOURCE": "CDPHE Health Facilities and Emergency Medical Services Division", "GEO_TRACT": "08005007600", "GEO_COUNTY": "ARAPAHOE", "GEO_ZIP": "80011", "FACTYPE": "Federally Qualified Health Center", "SYMBOL": "FQHC", "Latitude": 39.727409, "Longitude": -104.828247, "TYPE": "FQHC" }, "geometry": { "type": "MultiPoint", "coordinates": [ [ -104.828247000076288, 39.727408999683448 ] ] } },
{ "type": "Feature", "properties": { "OBJECTID": 1624, "FAC_NAME": "LOWRY FAMILY HEALTH CENTER (COXFI7)", "NAME": "LOWRY FAMILY HEALTH CENTER", "ADDRESS": "1001 NORTH YOSEMITE STREET", "CITY_STATE": "DENVER, CO   80220", "CITY": "DENVER", "STATE": "CO", "ZIP": "80220", "OPERATING_": "01-ACTIVE", "MEDICARE": "Y", "MEDICARE_I": "061847", "MEDICAID": "N", "MEDICAID_I": null, "CERTIFIED_": "0\/0", "COUNTY": "DENVER", "ADMIN": null, "PHONE": "(303) 436-4545", "EMERGENCY_": null, "EMERGENC_1": null, "EMERGENC_2": null, "EMERGENC_3": null, "DATE_GEOCO": "March 2020", "SOURCE": "CDPHE Health Facilities and Emergency Medical Services Division", "GEO_TRACT": "08031004405", "GEO_COUNTY": "DENVER", "GEO_ZIP": "80230", "FACTYPE": "Federally Qualified Health Center", "SYMBOL": "FQHC", "Latitude": 39.730171, "Longitude": -104.88546, "TYPE": "FQHC" }, "geometry": { "type": "MultiPoint", "coordinates": [ [ -104.88545999983593, 39.730171000332042 ] ] } },
{ "type": "Feature", "properties": { "OBJECTID": 1975, "FAC_NAME": "Clinica Campesina Family Health Services (CODID6)", "NAME": "C C F H S - CLINICA CAMPESINA FAMILY HEALTH SERVIC", "ADDRESS": "2525 13TH STREET", "CITY_STATE": "BOULDER, CO   80304", "CITY": "BOULDER", "STATE": "CO", "ZIP": "80304", "OPERATING_": "01-ACTIVE", "MEDICARE": "Y", "MEDICARE_I": "061836", "MEDICAID": "N", "MEDICAID_I": null, "CERTIFIED_": "0\/0", "COUNTY": "BOULDER", "ADMIN": null, "PHONE": "(303) 449-6050", "EMERGENCY_": null, "EMERGENC_1": null, "EMERGENC_2": null, "EMERGENC_3": null, "DATE_GEOCO": "March 2020", "SOURCE": "CDPHE Health Facilities and Emergency Medical Services Division", "GEO_TRACT": "08013012204", "GEO_COUNTY": "BOULDER", "GEO_ZIP": "80304", "FACTYPE": "Federally Qualified Health Center", "SYMBOL": "FQHC", "Latitude": 40.023602, "Longitude": -105.280579, "TYPE": "FQHC" }, "geometry": { "type": "MultiPoint", "coordinates": [ [ -105.280578999990908, 40.02360199992664 ] ] } },
{ "type": "Feature", "properties": { "OBJECTID": 1976, "FAC_NAME": "Clinica Campesina Family Health Services (CO18171)", "NAME": "CLINICA FAMILY HEALTH SERVICES", "ADDRESS": "2525 13TH STREET", "CITY_STATE": "BOULDER, CO   80304", "CITY": "BOULDER", "STATE": "CO", "ZIP": "80304", "OPERATING_": "01-ACTIVE", "MEDICARE": "Y", "MEDICARE_I": "061920", "MEDICAID": "N", "MEDICAID_I": null, "CERTIFIED_": "0\/0", "COUNTY": "BOULDER", "ADMIN": "Mr PETE LEIBIG", "PHONE": "(303) 665-3036", "EMERGENCY_": null, "EMERGENC_1": null, "EMERGENC_2": "(303) 665-9599", "EMERGENC_3": "lbarnes@clinica.org", "DATE_GEOCO": "March 2020", "SOURCE": "CDPHE Health Facilities and Emergency Medical Services Division", "GEO_TRACT": "08013012204", "GEO_COUNTY": "BOULDER", "GEO_ZIP": "80304", "FACTYPE": "Federally Qualified Health Center", "SYMBOL": "FQHC", "Latitude": 40.023602, "Longitude": -105.280579, "TYPE": "FQHC" }, "geometry": { "type": "MultiPoint", "coordinates": [ [ -105.280578999990908, 40.02360199992664 ] ] } },
{ "type": "Feature", "properties": { "OBJECTID": 2540, "FAC_NAME": "UCHEALTH EMERGENCY ROOM - FOUNTAIN (18J172)", "NAME": "UCHEALTH EMERGENCY ROOM - FOUNTAIN", "ADDRESS": "7890 FOUNTAIN MESA RD", "CITY_STATE": "FOUNTAIN, CO   80817", "CITY": "FOUNTAIN", "STATE": "CO", "ZIP": "80817", "OPERATING_": "01-ACTIVE", "MEDICARE": "N", "MEDICARE_I": null, "MEDICAID": "N", "MEDICAID_I": null, "CERTIFIED_": "0\/7", "COUNTY": "EL PASO", "ADMIN": "Mr JOEL YUHAS", "PHONE": "(719) 390-2690", "EMERGENCY_": null, "EMERGENC_1": null, "EMERGENC_2": "(719) 390-2684", "EMERGENC_3": null, "DATE_GEOCO": "March 2020", "SOURCE": "CDPHE Health Facilities and Emergency Medical Services Division", "GEO_TRACT": "08041004507", "GEO_COUNTY": "EL PASO", "GEO_ZIP": "80817", "FACTYPE": "Community Clinic\/Emergency", "SYMBOL": "Clinic", "Latitude": 38.719761, "Longitude": -104.700943, "TYPE": "CCEC" }, "geometry": { "type": "MultiPoint", "coordinates": [ [ -104.700942999680549, 38.719761000035142 ] ] } },
{ "type": "Feature", "properties": { "OBJECTID": 1904, "FAC_NAME": "UCHEALTH EMERGENCY ROOM - GREEN VALLEY RANCH (18X377)", "NAME": "UCHEALTH EMERGENCY ROOM - GREEN VALLEY RANCH", "ADDRESS": "18610 GREEN VALLEY RANCH BLVD", "CITY_STATE": "DENVER, CO   80249", "CITY": "DENVER", "STATE": "CO", "ZIP": "80249", "OPERATING_": "01-ACTIVE", "MEDICARE": "N", "MEDICARE_I": null, "MEDICAID": "N", "MEDICAID_I": null, "CERTIFIED_": "0\/7", "COUNTY": "DENVER", "ADMIN": "Mr CHRISTOPHER GESSNER", "PHONE": "(303) 307-5900", "EMERGENCY_": "ASK FOR ADMIN ON CALL", "EMERGENC_1": "(720) 848-0000", "EMERGENC_2": "(303) 307-5904", "EMERGENC_3": "trisha.park@uchcolorado.com", "DATE_GEOCO": "March 2020", "SOURCE": "CDPHE Health Facilities and Emergency Medical Services Division", "GEO_TRACT": "08031008390", "GEO_COUNTY": "DENVER", "GEO_ZIP": "80249", "FACTYPE": "Community Clinic\/Emergency", "SYMBOL": "Clinic", "Latitude": 39.783585, "Longitude": -104.769135, "TYPE": "CCEC" }, "geometry": { "type": "MultiPoint", "coordinates": [ [ -104.769135000433565, 39.783585000226132 ] ] } },
{ "type": "Feature", "properties": { "OBJECTID": 2716, "FAC_NAME": "Peak Vista Community Health Centers - Pediatric & Immediate Care Health Clinics (COOLTB)", "NAME": "PEAK VISTA C H C - PEDIATRIC & IMMEDIATE CARE", "ADDRESS": "2502 EAST PIKES PEAK AVENUE", "CITY_STATE": "COLORADO SPRINGS, CO   80910", "CITY": "COLORADO SPRINGS", "STATE": "CO", "ZIP": "80910", "OPERATING_": "01-ACTIVE", "MEDICARE": "Y", "MEDICARE_I": "061878", "MEDICAID": "N", "MEDICAID_I": null, "CERTIFIED_": "0\/0", "COUNTY": "EL PASO", "ADMIN": null, "PHONE": "(719) 632-5700", "EMERGENCY_": "Clint Peterson", "EMERGENC_1": "(719) 332-0480", "EMERGENC_2": null, "EMERGENC_3": "cpeterson@peakvista.org", "DATE_GEOCO": "March 2020", "SOURCE": "CDPHE Health Facilities and Emergency Medical Services Division", "GEO_TRACT": "08041002101", "GEO_COUNTY": "EL PASO", "GEO_ZIP": "80909", "FACTYPE": "Federally Qualified Health Center", "SYMBOL": "FQHC", "Latitude": 38.832695, "Longitude": -104.783783, "TYPE": "FQHC" }, "geometry": { "type": "MultiPoint", "coordinates": [ [ -104.783783000423313, 38.832694999948963 ] ] } },
{ "type": "Feature", "properties": { "OBJECTID": 2760, "FAC_NAME": "Peak Vista Community Health Centers - Women's Health Clinic (CO0QZS)", "NAME": "PEAK VISTA C H C - HC AT 350 PRINTERS PARKWAY", "ADDRESS": "350 PRINTERS PARKWAY", "CITY_STATE": "COLORADO SPRINGS, CO   80910", "CITY": "COLORADO SPRINGS", "STATE": "CO", "ZIP": "80910", "OPERATING_": "01-ACTIVE", "MEDICARE": "Y", "MEDICARE_I": "061877", "MEDICAID": "N", "MEDICAID_I": null, "CERTIFIED_": "0\/0", "COUNTY": "EL PASO", "ADMIN": null, "PHONE": "(719) 632-5700", "EMERGENCY_": "Clint Peterson", "EMERGENC_1": "(719) 332-0480", "EMERGENC_2": null, "EMERGENC_3": "cpeterson@peakvista.org", "DATE_GEOCO": "March 2020", "SOURCE": "CDPHE Health Facilities and Emergency Medical Services Division", "GEO_TRACT": "08041002101", "GEO_COUNTY": "EL PASO", "GEO_ZIP": "80910", "FACTYPE": "Federally Qualified Health Center", "SYMBOL": "FQHC", "Latitude": 38.826759, "Longitude": -104.786446, "TYPE": "FQHC" }, "geometry": { "type": "MultiPoint", "coordinates": [ [ -104.786446000387556, 38.826758999866016 ] ] } },
{ "type": "Feature", "properties": { "OBJECTID": 2761, "FAC_NAME": "LIGHT HOUSE ACUTE TREATMENT UNIT (41T306)", "NAME": "LIGHT HOUSE ACUTE TREATMENT UNIT", "ADDRESS": "115 S PARKSIDE", "CITY_STATE": "COLORADO SPRINGS, CO   80910", "CITY": "COLORADO SPRINGS", "STATE": "CO", "ZIP": "80910", "OPERATING_": "01-ACTIVE", "MEDICARE": "N", "MEDICARE_I": null, "MEDICAID": "N", "MEDICAID_I": null, "CERTIFIED_": "0\/16", "COUNTY": "EL PASO", "ADMIN": "Ms ERIN MILLIKEN", "PHONE": "(719) 572-6340", "EMERGENCY_": null, "EMERGENC_1": null, "EMERGENC_2": "(719) 447-4791", "EMERGENC_3": null, "DATE_GEOCO": "March 2020", "SOURCE": "CDPHE Health Facilities and Emergency Medical Services Division", "GEO_TRACT": "08041002101", "GEO_COUNTY": "EL PASO", "GEO_ZIP": "80910", "FACTYPE": "Acute Treatment Unit", "SYMBOL": "Clinic", "Latitude": 38.83028, "Longitude": -104.785339, "TYPE": "ATU" }, "geometry": { "type": "MultiPoint", "coordinates": [ [ -104.78533900017473, 38.830279999916471 ] ] } },
{ "type": "Feature", "properties": { "OBJECTID": 2762, "FAC_NAME": "Peak Vista Community Health Clinics - Family Health Clinic At Union (CO061903)", "NAME": "PEAK VISTA C H C - FAMILY HEALTH CLINIC AT UNION", "ADDRESS": "225 SOUTH UNION BOULEVARD", "CITY_STATE": "COLORADO SPRINGS, CO   80910", "CITY": "COLORADO SPRINGS", "STATE": "CO", "ZIP": "80910", "OPERATING_": "01-ACTIVE", "MEDICARE": "Y", "MEDICARE_I": "061903", "MEDICAID": "N", "MEDICAID_I": null, "CERTIFIED_": "0\/0", "COUNTY": "EL PASO", "ADMIN": null, "PHONE": "(719) 329-7138", "EMERGENCY_": null, "EMERGENC_1": null, "EMERGENC_2": null, "EMERGENC_3": null, "DATE_GEOCO": "March 2020", "SOURCE": "CDPHE Health Facilities and Emergency Medical Services Division", "GEO_TRACT": "08041002101", "GEO_COUNTY": "EL PASO", "GEO_ZIP": "80910", "FACTYPE": "Federally Qualified Health Center", "SYMBOL": "FQHC", "Latitude": 38.828445, "Longitude": -104.794868, "TYPE": "FQHC" }, "geometry": { "type": "MultiPoint", "coordinates": [ [ -104.794867999925259, 38.828444999803892 ] ] } },
{ "type": "Feature", "properties": { "OBJECTID": 2763, "FAC_NAME": "Peak Vista Community Health Centers - Ronald McDonald Care Mobile (CO061906)", "NAME": "PEAK VISTA C H C - RONALD MCDONALD CARE MOBILE", "ADDRESS": "340 PRINTERS PARKWAY", "CITY_STATE": "COLORADO SPRINGS, CO   80910", "CITY": "COLORADO SPRINGS", "STATE": "CO", "ZIP": "80910", "OPERATING_": "01-ACTIVE", "MEDICARE": "Y", "MEDICARE_I": "061906", "MEDICAID": "N", "MEDICAID_I": null, "CERTIFIED_": "0\/0", "COUNTY": "EL PASO", "ADMIN": null, "PHONE": "(719) 866-6789", "EMERGENCY_": null, "EMERGENC_1": null, "EMERGENC_2": null, "EMERGENC_3": null, "DATE_GEOCO": "March 2020", "SOURCE": "CDPHE Health Facilities and Emergency Medical Services Division", "GEO_TRACT": "08041002101", "GEO_COUNTY": "EL PASO", "GEO_ZIP": "80910", "FACTYPE": "Federally Qualified Health Center", "SYMBOL": "FQHC", "Latitude": 38.826839, "Longitude": -104.786476, "TYPE": "FQHC" }, "geometry": { "type": "MultiPoint", "coordinates": [ [ -104.786475999626461, 38.826838999986741 ] ] } },
{ "type": "Feature", "properties": { "OBJECTID": 2765, "FAC_NAME": "Peak Vista Community Health Clinic - Homeless Mobil Van (CO061909)", "NAME": "PEAK VISTA C H C - MOBILE HEALTH SERVICES VAN", "ADDRESS": "340 PRINTERS PARKWAY", "CITY_STATE": "COLORADO SPRINGS, CO   80910", "CITY": "COLORADO SPRINGS", "STATE": "CO", "ZIP": "80910", "OPERATING_": "01-ACTIVE", "MEDICARE": "Y", "MEDICARE_I": "061909", "MEDICAID": "N", "MEDICAID_I": null, "CERTIFIED_": "0\/0", "COUNTY": "EL PASO", "ADMIN": null, "PHONE": "(719) 630-6440", "EMERGENCY_": "Pamela McManus", "EMERGENC_1": "(719) 689-9230", "EMERGENC_2": "(719) 344-7801", "EMERGENC_3": null, "DATE_GEOCO": "March 2020", "SOURCE": "CDPHE Health Facilities and Emergency Medical Services Division", "GEO_TRACT": "08041002101", "GEO_COUNTY": "EL PASO", "GEO_ZIP": "80910", "FACTYPE": "Federally Qualified Health Center", "SYMBOL": "FQHC", "Latitude": 38.826839, "Longitude": -104.786476, "TYPE": "FQHC" }, "geometry": { "type": "MultiPoint", "coordinates": [ [ -104.786475999626461, 38.826838999986741 ] ] } },
{ "type": "Feature", "properties": { "OBJECTID": 2766, "FAC_NAME": "Peak Vista Community Health Centers (CO17347)", "NAME": "PEDIATRIC HEALTH CENTER", "ADDRESS": "2828 INTERNATIONAL CIRCLE, SUITE 140", "CITY_STATE": "COLORADO SPRINGS, CO   80910", "CITY": "COLORADO SPRINGS", "STATE": "CO", "ZIP": "80910", "OPERATING_": "01-ACTIVE", "MEDICARE": "Y", "MEDICARE_I": "061917", "MEDICAID": "N", "MEDICAID_I": null, "CERTIFIED_": "0\/0", "COUNTY": "EL PASO", "ADMIN": "Ms. KATIE LUTZ", "PHONE": "(719) 344-7131", "EMERGENCY_": null, "EMERGENC_1": null, "EMERGENC_2": "(719) 344-7821", "EMERGENC_3": null, "DATE_GEOCO": "March 2020", "SOURCE": "CDPHE Health Facilities and Emergency Medical Services Division", "GEO_TRACT": "08041002101", "GEO_COUNTY": "EL PASO", "GEO_ZIP": "80910", "FACTYPE": "Federally Qualified Health Center", "SYMBOL": "FQHC", "Latitude": 38.827141, "Longitude": -104.788231, "TYPE": "FQHC" }, "geometry": { "type": "MultiPoint", "coordinates": [ [ -104.788230999569478, 38.82714100008711 ] ] } },
{ "type": "Feature", "properties": { "OBJECTID": 2767, "FAC_NAME": "Peak Vista Community Health Centers (CO17348)", "NAME": "FAMILY HEALTH CENTER AT INTERNATIONAL CIRCLE", "ADDRESS": "2828 INTERNATIONAL CIRCLE, SUITE 160", "CITY_STATE": "COLORADO SPRINGS, CO   80910", "CITY": "COLORADO SPRINGS", "STATE": "CO", "ZIP": "80910", "OPERATING_": "01-ACTIVE", "MEDICARE": "Y", "MEDICARE_I": "061918", "MEDICAID": "N", "MEDICAID_I": null, "CERTIFIED_": "0\/0", "COUNTY": "EL PASO", "ADMIN": "Ms LORRIE PRITT", "PHONE": "(719) 344-6176", "EMERGENCY_": null, "EMERGENC_1": null, "EMERGENC_2": "(719) 344-7841", "EMERGENC_3": null, "DATE_GEOCO": "March 2020", "SOURCE": "CDPHE Health Facilities and Emergency Medical Services Division", "GEO_TRACT": "08041002101", "GEO_COUNTY": "EL PASO", "GEO_ZIP": "80910", "FACTYPE": "Federally Qualified Health Center", "SYMBOL": "FQHC", "Latitude": 38.827141, "Longitude": -104.788231, "TYPE": "FQHC" }, "geometry": { "type": "MultiPoint", "coordinates": [ [ -104.788230999569478, 38.82714100008711 ] ] } },
{ "type": "Feature", "properties": { "OBJECTID": 2918, "FAC_NAME": "CENTURA HEALTH-ST FRANCIS MEDICAL CENTER (01H523)", "NAME": "CENTURA HEALTH-ST FRANCIS MEDICAL CENTER", "ADDRESS": "6001 E WOODMEN RD", "CITY_STATE": "COLORADO SPRINGS, CO   80923", "CITY": "COLORADO SPRINGS", "STATE": "CO", "ZIP": "80923", "OPERATING_": "01-ACTIVE", "MEDICARE": "N", "MEDICARE_I": null, "MEDICAID": "N", "MEDICAID_I": null, "CERTIFIED_": "0\/222", "COUNTY": "EL PASO", "ADMIN": "Dr BRIAN ERLING", "PHONE": "(719) 571-1000", "EMERGENCY_": "Meredith Wardwell", "EMERGENC_1": "(719) 776-5377", "EMERGENC_2": "(719) 571-2113", "EMERGENC_3": "DavidHoward@centura.org; Admin margaretsabin@centura.org", "DATE_GEOCO": "March 2020", "SOURCE": "CDPHE Health Facilities and Emergency Medical Services Division", "GEO_TRACT": "08041004706", "GEO_COUNTY": "EL PASO", "GEO_ZIP": "80923", "FACTYPE": "Hospital", "SYMBOL": "Hospital", "Latitude": 38.940205, "Longitude": -104.715843, "TYPE": "LICGEN" }, "geometry": { "type": "MultiPoint", "coordinates": [ [ -104.715842999565396, 38.940204999853819 ] ] } },
{ "type": "Feature", "properties": { "OBJECTID": 2794, "FAC_NAME": "Peak Vista Community Health Centers (061948)", "NAME": "CONVENIENT CARE CENTER", "ADDRESS": "3205 NORTH ACADEMY BLVD, SUITE 100", "CITY_STATE": "COLORADO SPRINGS, CO   80917", "CITY": "COLORADO SPRINGS", "STATE": "CO", "ZIP": "80917", "OPERATING_": "01-ACTIVE", "MEDICARE": "Y", "MEDICARE_I": "061948", "MEDICAID": "N", "MEDICAID_I": null, "CERTIFIED_": "0\/0", "COUNTY": "EL PASO", "ADMIN": null, "PHONE": "(719) 344-6558", "EMERGENCY_": null, "EMERGENC_1": null, "EMERGENC_2": null, "EMERGENC_3": null, "DATE_GEOCO": "March 2020", "SOURCE": "CDPHE Health Facilities and Emergency Medical Services Division", "GEO_TRACT": "08041005700", "GEO_COUNTY": "EL PASO", "GEO_ZIP": "80917", "FACTYPE": "Federally Qualified Health Center", "SYMBOL": "FQHC", "Latitude": 38.878391, "Longitude": -104.756889, "TYPE": "FQHC" }, "geometry": { "type": "MultiPoint", "coordinates": [ [ -104.756889000292119, 38.878390999872067 ] ] } },
{ "type": "Feature", "properties": { "OBJECTID": 1240, "FAC_NAME": "Denver Health and Hospital Authority (CO3514)", "NAME": "PARK HILL FAMILY HEALTH CENTER", "ADDRESS": "4995 EAST 33RD AVENUE", "CITY_STATE": "DENVER, CO   80207", "CITY": "DENVER", "STATE": "CO", "ZIP": "80207", "OPERATING_": "01-ACTIVE", "MEDICARE": "Y", "MEDICARE_I": "061826", "MEDICAID": "N", "MEDICAID_I": null, "CERTIFIED_": "0\/0", "COUNTY": "DENVER", "ADMIN": null, "PHONE": "(720) 956-2820", "EMERGENCY_": null, "EMERGENC_1": null, "EMERGENC_2": null, "EMERGENC_3": null, "DATE_GEOCO": "March 2020", "SOURCE": "CDPHE Health Facilities and Emergency Medical Services Division", "GEO_TRACT": "08031004101", "GEO_COUNTY": "DENVER", "GEO_ZIP": "80207", "FACTYPE": "Federally Qualified Health Center", "SYMBOL": "FQHC", "Latitude": 39.763855, "Longitude": -104.929466, "TYPE": "FQHC" }, "geometry": { "type": "MultiPoint", "coordinates": [ [ -104.929465999729516, 39.763854999663629 ] ] } },
{ "type": "Feature", "properties": { "OBJECTID": 1235, "FAC_NAME": "KINDRED HOSPITAL-DENVER (010420)", "NAME": "KINDRED HOSPITAL-DENVER", "ADDRESS": "1920 HIGH ST", "CITY_STATE": "DENVER, CO   80218", "CITY": "DENVER", "STATE": "CO", "ZIP": "80218", "OPERATING_": "01-ACTIVE", "MEDICARE": "Y", "MEDICARE_I": "062009", "MEDICAID": "Y", "MEDICAID_I": "5000310", "CERTIFIED_": "68\/68", "COUNTY": "DENVER", "ADMIN": "Ms JANELLE KIRCHER", "PHONE": "(303) 320-5871", "EMERGENCY_": "Security\/PBX Operator", "EMERGENC_1": "(303) 320-5871", "EMERGENC_2": "(303) 377-6212", "EMERGENC_3": "adolphe.edward@kindred.com;Admin janelle.kircher@kindred.com", "DATE_GEOCO": "March 2020", "SOURCE": "CDPHE Health Facilities and Emergency Medical Services Division", "GEO_TRACT": "08031003102", "GEO_COUNTY": "DENVER", "GEO_ZIP": "80206", "FACTYPE": "Long Term Hospital", "SYMBOL": "Long Term Care Hospital", "Latitude": 39.746296, "Longitude": -104.96463, "TYPE": "HOSP-LT" }, "geometry": { "type": "MultiPoint", "coordinates": [ [ -104.964629999960778, 39.746295999863392 ] ] } },
{ "type": "Feature", "properties": { "OBJECTID": 1386, "FAC_NAME": "PRESBYTERIAN ST LUKE'S MEDICAL CENTER (010431)", "NAME": "PRESBYTERIAN ST LUKE'S MEDICAL CENTER", "ADDRESS": "1719 E 19TH AVE", "CITY_STATE": "DENVER, CO   80218", "CITY": "DENVER", "STATE": "CO", "ZIP": "80218", "OPERATING_": "01-ACTIVE", "MEDICARE": "Y", "MEDICARE_I": "060014", "MEDICAID": "Y", "MEDICAID_I": "5014006", "CERTIFIED_": "680\/680", "COUNTY": "DENVER", "ADMIN": "Ms MAUREEN TARRANT", "PHONE": "(303) 839-6000", "EMERGENCY_": "Maureen Tarrant", "EMERGENC_1": "(303) 839-7778", "EMERGENC_2": "(303) 869-2428", "EMERGENC_3": "Maureen.Tarrant@healthonecares.com", "DATE_GEOCO": "March 2020", "SOURCE": "CDPHE Health Facilities and Emergency Medical Services Division", "GEO_TRACT": "08031003101", "GEO_COUNTY": "DENVER", "GEO_ZIP": "80218", "FACTYPE": "Hospital", "SYMBOL": "Hospital", "Latitude": 39.746143, "Longitude": -104.966736, "TYPE": "HOSP-ACU" }, "geometry": { "type": "MultiPoint", "coordinates": [ [ -104.966736000431396, 39.746143000084089 ] ] } },
{ "type": "Feature", "properties": { "OBJECTID": 1387, "FAC_NAME": "SPALDING REHABILITATION HOSPITAL AT PSLMC (13L197)", "NAME": "SPALDING REHABILITATION HOSPITAL AT PSLMC", "ADDRESS": "1719 E 19TH AVE", "CITY_STATE": "DENVER, CO   80218", "CITY": "DENVER", "STATE": "CO", "ZIP": "80218", "OPERATING_": "01-ACTIVE", "MEDICARE": "N", "MEDICARE_I": null, "MEDICAID": "N", "MEDICAID_I": null, "CERTIFIED_": "0\/22", "COUNTY": "DENVER", "ADMIN": "Mr RYAN SIMPSON", "PHONE": "(303) 839-6293", "EMERGENCY_": null, "EMERGENC_1": null, "EMERGENC_2": "(303) 839-6422", "EMERGENC_3": "Admin daniel.miller@healthonecares.com", "DATE_GEOCO": "March 2020", "SOURCE": "CDPHE Health Facilities and Emergency Medical Services Division", "GEO_TRACT": "08031003101", "GEO_COUNTY": "DENVER", "GEO_ZIP": "80218", "FACTYPE": "Hospital", "SYMBOL": "Hospital", "Latitude": 39.746143, "Longitude": -104.966736, "TYPE": "H-UNIT" }, "geometry": { "type": "MultiPoint", "coordinates": [ [ -104.966736000431396, 39.746143000084089 ] ] } },
{ "type": "Feature", "properties": { "OBJECTID": 93, "FAC_NAME": "MCPN - North Aurora Family Health Services (COHIX6)", "NAME": "M C P N - NORTH AURORA FAMILY HEALTH SERVICES", "ADDRESS": "3292 PEORIA STREET", "CITY_STATE": "AURORA, CO   80010", "CITY": "AURORA", "STATE": "CO", "ZIP": "80010", "OPERATING_": "01-ACTIVE", "MEDICARE": "Y", "MEDICARE_I": "061834", "MEDICAID": "N", "MEDICAID_I": null, "CERTIFIED_": "0\/0", "COUNTY": "ADAMS", "ADMIN": "Ms ZANDA GATEWOOD", "PHONE": "(303) 360-6276", "EMERGENCY_": null, "EMERGENC_1": null, "EMERGENC_2": "(303) 343-2831", "EMERGENC_3": null, "DATE_GEOCO": "March 2020", "SOURCE": "CDPHE Health Facilities and Emergency Medical Services Division", "GEO_TRACT": "08001008200", "GEO_COUNTY": "ADAMS", "GEO_ZIP": "80011", "FACTYPE": "Federally Qualified Health Center", "SYMBOL": "FQHC", "Latitude": 39.763611, "Longitude": -104.84684, "TYPE": "FQHC" }, "geometry": { "type": "MultiPoint", "coordinates": [ [ -104.846840000145278, 39.763611000009725 ] ] } },
{ "type": "Feature", "properties": { "OBJECTID": 493, "FAC_NAME": "SADDLE ROCK EMERGENCY ROOM (18N603)", "NAME": "SADDLE ROCK EMERGENCY ROOM", "ADDRESS": "22500 E DRY CREEK RD", "CITY_STATE": "AURORA, CO   80016", "CITY": "AURORA", "STATE": "CO", "ZIP": "80016", "OPERATING_": "01-ACTIVE", "MEDICARE": "N", "MEDICARE_I": null, "MEDICAID": "N", "MEDICAID_I": null, "CERTIFIED_": "0\/10", "COUNTY": "ARAPAHOE", "ADMIN": "Mr RYAN SIMPSON", "PHONE": "(720) 376-6400", "EMERGENCY_": null, "EMERGENC_1": null, "EMERGENC_2": "(303) 368-2400", "EMERGENC_3": "ryan.simpson@healthonecares.com", "DATE_GEOCO": "March 2020", "SOURCE": "CDPHE Health Facilities and Emergency Medical Services Division", "GEO_TRACT": "08005086500", "GEO_COUNTY": "ARAPAHOE", "GEO_ZIP": "80016", "FACTYPE": "Community Clinic\/Emergency", "SYMBOL": "Clinic", "Latitude": 39.580093, "Longitude": -104.726089, "TYPE": "CCEC" }, "geometry": { "type": "MultiPoint", "coordinates": [ [ -104.726089000439728, 39.580093000335602 ] ] } },
{ "type": "Feature", "properties": { "OBJECTID": 476, "FAC_NAME": "SOUTHLANDS ER PARKER ADVENTIST HOSPITAL (18A468)", "NAME": "SOUTHLANDS ER PARKER ADVENTIST HOSPITAL", "ADDRESS": "6159 S SOUTHLANDS PKWY", "CITY_STATE": "AURORA, CO   80016", "CITY": "AURORA", "STATE": "CO", "ZIP": "80016", "OPERATING_": "01-ACTIVE", "MEDICARE": "N", "MEDICARE_I": null, "MEDICAID": "N", "MEDICAID_I": null, "CERTIFIED_": "0\/0", "COUNTY": "ARAPAHOE", "ADMIN": "Mr MICHAEL GOEBEL", "PHONE": "(303) 649-3000", "EMERGENCY_": "Michael Goebel", "EMERGENC_1": "(303) 815-7201", "EMERGENC_2": "(303) 649-3010", "EMERGENC_3": "HeatherTiftickjian@centura.org; samhuenergardt@centura.org", "DATE_GEOCO": "March 2020", "SOURCE": "CDPHE Health Facilities and Emergency Medical Services Division", "GEO_TRACT": "08005007107", "GEO_COUNTY": "ARAPAHOE", "GEO_ZIP": "80016", "FACTYPE": "Community Clinic\/Emergency", "SYMBOL": "Clinic", "Latitude": 39.604298, "Longitude": -104.711082, "TYPE": "CCEC" }, "geometry": { "type": "MultiPoint", "coordinates": [ [ -104.711082000424781, 39.604297999845322 ] ] } },
{ "type": "Feature", "properties": { "OBJECTID": 478, "FAC_NAME": "SCL HEALTH SAINT JOSEPH EMERGENCY DEPARTMENT - AURORA (18Y299)", "NAME": "SCL HEALTH ST JOSEPH EMERGENCY DEPARTMENT - AURORA", "ADDRESS": "23770 E SMOKY HILL RD #100", "CITY_STATE": "AURORA, CO   80016", "CITY": "AURORA", "STATE": "CO", "ZIP": "80016", "OPERATING_": "01-ACTIVE", "MEDICARE": "N", "MEDICARE_I": null, "MEDICAID": "N", "MEDICAID_I": null, "CERTIFIED_": "0\/14", "COUNTY": "ARAPAHOE", "ADMIN": "Mr JAMESON SMITH", "PHONE": "(720) 573-5045", "EMERGENCY_": null, "EMERGENC_1": null, "EMERGENC_2": "(303) 617-0068", "EMERGENC_3": null, "DATE_GEOCO": "March 2020", "SOURCE": "CDPHE Health Facilities and Emergency Medical Services Division", "GEO_TRACT": "08005007107", "GEO_COUNTY": "ARAPAHOE", "GEO_ZIP": "80016", "FACTYPE": "Community Clinic\/Emergency", "SYMBOL": "Clinic", "Latitude": 39.600018, "Longitude": -104.711815, "TYPE": "CCEC" }, "geometry": { "type": "MultiPoint", "coordinates": [ [ -104.711814999645469, 39.60001799978361 ] ] } },
{ "type": "Feature", "properties": { "OBJECTID": 2370, "FAC_NAME": "Sunrise Monfort Family Clinic (COJRKQ)", "NAME": "SUNRISE MONFORT FAMILY CLINIC", "ADDRESS": "2930 11TH AVENUE", "CITY_STATE": "EVANS, CO   80620", "CITY": "EVANS", "STATE": "CO", "ZIP": "80620", "OPERATING_": "01-ACTIVE", "MEDICARE": "Y", "MEDICARE_I": "061801", "MEDICAID": "N", "MEDICAID_I": null, "CERTIFIED_": "0\/0", "COUNTY": "WELD", "ADMIN": "Ms MITZI MORAN", "PHONE": "(970) 353-9403", "EMERGENCY_": null, "EMERGENC_1": null, "EMERGENC_2": "(970) 353-5884", "EMERGENC_3": "mmoran.sunrise@nocoha.org", "DATE_GEOCO": "March 2020", "SOURCE": "CDPHE Health Facilities and Emergency Medical Services Division", "GEO_TRACT": "08123001004", "GEO_COUNTY": "WELD", "GEO_ZIP": "80620", "FACTYPE": "Federally Qualified Health Center", "SYMBOL": "FQHC", "Latitude": 40.389809, "Longitude": -104.696785, "TYPE": "FQHC" }, "geometry": { "type": "MultiPoint", "coordinates": [ [ -104.696785000064295, 40.389808999879641 ] ] } },
{ "type": "Feature", "properties": { "OBJECTID": 2606, "FAC_NAME": "Peak Vista C H C - Peak Vista District Two (CO061893)", "NAME": "PEAK VISTA C H C - PEAK VISTA DISTRICT TWO", "ADDRESS": "1060 HARRISON ROAD", "CITY_STATE": "COLORADO SPRINGS, CO   80906", "CITY": "COLORADO SPRINGS", "STATE": "CO", "ZIP": "80906", "OPERATING_": "01-ACTIVE", "MEDICARE": "Y", "MEDICARE_I": "061893", "MEDICAID": "N", "MEDICAID_I": null, "CERTIFIED_": "0\/0", "COUNTY": "EL PASO", "ADMIN": null, "PHONE": "(719) 630-6450", "EMERGENCY_": "Clint Peterson", "EMERGENC_1": "(719) 332-0480", "EMERGENC_2": "(719) 228-6607", "EMERGENC_3": "cpeterson@peakvista.org", "DATE_GEOCO": "March 2020", "SOURCE": "CDPHE Health Facilities and Emergency Medical Services Division", "GEO_TRACT": "08041002900", "GEO_COUNTY": "EL PASO", "GEO_ZIP": "80905", "FACTYPE": "Federally Qualified Health Center", "SYMBOL": "FQHC", "Latitude": 38.796631, "Longitude": -104.810104, "TYPE": "FQHC" }, "geometry": { "type": "MultiPoint", "coordinates": [ [ -104.810104000269078, 38.796631000305688 ] ] } },
{ "type": "Feature", "properties": { "OBJECTID": 2838, "FAC_NAME": "Peak Vista C H C - Peak Vista Assisted Living (CO061894)", "NAME": "PEAK VISTA C H C - PEAK VISTA ASSISTED LIVING", "ADDRESS": "2780 VICKERS DRIVE", "CITY_STATE": "COLORADO SPRINGS, CO   80918", "CITY": "COLORADO SPRINGS", "STATE": "CO", "ZIP": "80918", "OPERATING_": "01-ACTIVE", "MEDICARE": "Y", "MEDICARE_I": "061894", "MEDICAID": "N", "MEDICAID_I": null, "CERTIFIED_": "0\/0", "COUNTY": "EL PASO", "ADMIN": null, "PHONE": "(719) 598-0400", "EMERGENCY_": "Clint Peterson", "EMERGENC_1": "(719) 332-0480", "EMERGENC_2": "(719) 228-6607", "EMERGENC_3": "cpeterson@peakvista.org", "DATE_GEOCO": "March 2020", "SOURCE": "CDPHE Health Facilities and Emergency Medical Services Division", "GEO_TRACT": "08041004701", "GEO_COUNTY": "EL PASO", "GEO_ZIP": "80918", "FACTYPE": "Federally Qualified Health Center", "SYMBOL": "FQHC", "Latitude": 38.914116, "Longitude": -104.776047, "TYPE": "FQHC" }, "geometry": { "type": "MultiPoint", "coordinates": [ [ -104.776047000250642, 38.914115999773884 ] ] } },
{ "type": "Feature", "properties": { "OBJECTID": 568, "FAC_NAME": "PLAN DE SALUD DEL VALLE (COMRRH)", "NAME": "PLAN DE SALUD DEL VALLE", "ADDRESS": "6075 PARKWAY DR  SUITE 160", "CITY_STATE": "COMMERCE CITY, CO   80037", "CITY": "COMMERCE CITY", "STATE": "CO", "ZIP": "80037", "OPERATING_": "01-ACTIVE", "MEDICARE": "Y", "MEDICARE_I": "061813", "MEDICAID": "N", "MEDICAID_I": null, "CERTIFIED_": "0\/0", "COUNTY": "ADAMS", "ADMIN": null, "PHONE": "(303) 286-8900", "EMERGENCY_": null, "EMERGENC_1": null, "EMERGENC_2": null, "EMERGENC_3": null, "DATE_GEOCO": "March 2020", "SOURCE": "CDPHE Health Facilities and Emergency Medical Services Division", "GEO_TRACT": "08001008709", "GEO_COUNTY": "ADAMS", "GEO_ZIP": "80022", "FACTYPE": "Federally Qualified Health Center", "SYMBOL": "FQHC", "Latitude": 39.80751, "Longitude": -104.928932, "TYPE": "FQHC" }, "geometry": { "type": "MultiPoint", "coordinates": [ [ -104.928931999802117, 39.807510000107726 ] ] } },
{ "type": "Feature", "properties": { "OBJECTID": 880, "FAC_NAME": "CENTENNIAL MEDICAL PLAZA (18H134)", "NAME": "CENTENNIAL MEDICAL PLAZA", "ADDRESS": "14200 EAST ARAPAHOE ROAD", "CITY_STATE": "CENTENNIAL, CO   80112", "CITY": "CENTENNIAL", "STATE": "CO", "ZIP": "80112", "OPERATING_": "01-ACTIVE", "MEDICARE": "N", "MEDICARE_I": null, "MEDICAID": "N", "MEDICAID_I": null, "CERTIFIED_": "0\/19", "COUNTY": "ARAPAHOE", "ADMIN": "Mr RYAN SIMPSON", "PHONE": "(303) 699-3000", "EMERGENCY_": null, "EMERGENC_1": null, "EMERGENC_2": "(303) 337-9773", "EMERGENC_3": null, "DATE_GEOCO": "March 2020", "SOURCE": "CDPHE Health Facilities and Emergency Medical Services Division", "GEO_TRACT": "08005006856", "GEO_COUNTY": "ARAPAHOE", "GEO_ZIP": "80112", "FACTYPE": "Community Clinic\/Emergency", "SYMBOL": "Clinic", "Latitude": 39.594833, "Longitude": -104.822586, "TYPE": "CCEC" }, "geometry": { "type": "MultiPoint", "coordinates": [ [ -104.822586000412073, 39.594833000288659 ] ] } },
{ "type": "Feature", "properties": { "OBJECTID": 2691, "FAC_NAME": "Peak Vista Community Health Centers (061007)", "NAME": "FAMILY HEALTH CENTER AT MITCHEL HIGH SCHOOL", "ADDRESS": "4041 EAST SAN MIGUEL STREET", "CITY_STATE": "COLORADO SPRINGS, CO   80909", "CITY": "COLORADO SPRINGS", "STATE": "CO", "ZIP": "80909", "OPERATING_": "01-ACTIVE", "MEDICARE": "Y", "MEDICARE_I": "061007", "MEDICAID": "N", "MEDICAID_I": null, "CERTIFIED_": "0\/0", "COUNTY": "EL PASO", "ADMIN": null, "PHONE": "(719) 632-5700", "EMERGENCY_": "Tracy Narvet", "EMERGENC_1": null, "EMERGENC_2": null, "EMERGENC_3": null, "DATE_GEOCO": "March 2020", "SOURCE": "CDPHE Health Facilities and Emergency Medical Services Division", "GEO_TRACT": "08041006000", "GEO_COUNTY": "EL PASO", "GEO_ZIP": "80909", "FACTYPE": "Federally Qualified Health Center", "SYMBOL": "FQHC", "Latitude": 38.850662, "Longitude": -104.750015, "TYPE": "FQHC" }, "geometry": { "type": "MultiPoint", "coordinates": [ [ -104.750015000109883, 38.85066200012519 ] ] } },
{ "type": "Feature", "properties": { "OBJECTID": 1733, "FAC_NAME": "Regents of the University of Colorado (CO161931)", "NAME": "SHERIDAN HEALTH SERVICES", "ADDRESS": "3525 WEST OXFORD AVENUE, UNIT G-3", "CITY_STATE": "DENVER, CO   80236", "CITY": "DENVER", "STATE": "CO", "ZIP": "80236", "OPERATING_": "01-ACTIVE", "MEDICARE": "Y", "MEDICARE_I": "061931", "MEDICAID": "N", "MEDICAID_I": null, "CERTIFIED_": "0\/0", "COUNTY": "ARAPAHOE", "ADMIN": null, "PHONE": "(303) 797-4260", "EMERGENCY_": null, "EMERGENC_1": null, "EMERGENC_2": null, "EMERGENC_3": null, "DATE_GEOCO": "March 2020", "SOURCE": "CDPHE Health Facilities and Emergency Medical Services Division", "GEO_TRACT": "08031005502", "GEO_COUNTY": "DENVER", "GEO_ZIP": "80236", "FACTYPE": "Federally Qualified Health Center", "SYMBOL": "FQHC", "Latitude": 39.642323, "Longitude": -105.033607, "TYPE": "FQHC" }, "geometry": { "type": "MultiPoint", "coordinates": [ [ -105.033606999813017, 39.642323000101655 ] ] } },
{ "type": "Feature", "properties": { "OBJECTID": 1222, "FAC_NAME": "Colorado Coalition for the Homeless - Stout Street Clinic (COKKM5)", "NAME": "C C H - STOUT STREET CLINIC", "ADDRESS": "2100 BROADWAY", "CITY_STATE": "DENVER, CO   80205", "CITY": "DENVER", "STATE": "CO", "ZIP": "80205", "OPERATING_": "01-ACTIVE", "MEDICARE": "Y", "MEDICARE_I": "061835", "MEDICAID": "N", "MEDICAID_I": null, "CERTIFIED_": "0\/0", "COUNTY": "DENVER", "ADMIN": null, "PHONE": "(303) 293-2220", "EMERGENCY_": null, "EMERGENC_1": null, "EMERGENC_2": null, "EMERGENC_3": null, "DATE_GEOCO": "March 2020", "SOURCE": "CDPHE Health Facilities and Emergency Medical Services Division", "GEO_TRACT": "08031002403", "GEO_COUNTY": "DENVER", "GEO_ZIP": "80205", "FACTYPE": "Federally Qualified Health Center", "SYMBOL": "FQHC", "Latitude": 39.750702, "Longitude": -104.98732, "TYPE": "FQHC" }, "geometry": { "type": "MultiPoint", "coordinates": [ [ -104.987320000444967, 39.750702000318775 ] ] } },
{ "type": "Feature", "properties": { "OBJECTID": 2582, "FAC_NAME": "Peak Vista Community Health Centers - Colorado Springs Senior Health Clinic (COE0GH)", "NAME": "PEAK VISTA C H C - COLORADO SPRINGS SENIOR HEALTH", "ADDRESS": "722 SOUTH WAHSATCH AVENUE", "CITY_STATE": "COLORADO SPRINGS, CO   80903", "CITY": "COLORADO SPRINGS", "STATE": "CO", "ZIP": "80903", "OPERATING_": "01-ACTIVE", "MEDICARE": "Y", "MEDICARE_I": "061833", "MEDICAID": "N", "MEDICAID_I": null, "CERTIFIED_": "0\/0", "COUNTY": "EL PASO", "ADMIN": null, "PHONE": "(719) 632-5700", "EMERGENCY_": "Clint Peterson", "EMERGENC_1": "(719) 332-0480", "EMERGENC_2": null, "EMERGENC_3": "cpeterson@peakvista.org", "DATE_GEOCO": "March 2020", "SOURCE": "CDPHE Health Facilities and Emergency Medical Services Division", "GEO_TRACT": "08041002300", "GEO_COUNTY": "EL PASO", "GEO_ZIP": "80903", "FACTYPE": "Federally Qualified Health Center", "SYMBOL": "FQHC", "Latitude": 38.823776, "Longitude": -104.818619, "TYPE": "FQHC" }, "geometry": { "type": "MultiPoint", "coordinates": [ [ -104.818618999693214, 38.82377599997379 ] ] } },
{ "type": "Feature", "properties": { "OBJECTID": 2583, "FAC_NAME": "Peak Vista Community Health Centers - Homeless Medical and Dental Clinic (COYCX9)", "NAME": "PEAK VISTA C H C - HOMELESS MEDICAL & DENTAL CLN", "ADDRESS": "117 WEST RIO GRANDE STREET", "CITY_STATE": "COLORADO SPRINGS, CO   80903", "CITY": "COLORADO SPRINGS", "STATE": "CO", "ZIP": "80903", "OPERATING_": "01-ACTIVE", "MEDICARE": "Y", "MEDICARE_I": "061850", "MEDICAID": "N", "MEDICAID_I": null, "CERTIFIED_": "0\/0", "COUNTY": "EL PASO", "ADMIN": null, "PHONE": "(719) 471-2789", "EMERGENCY_": "Clint Peterson", "EMERGENC_1": "(719) 332-0480", "EMERGENC_2": null, "EMERGENC_3": "cpeterson@peakvista.org", "DATE_GEOCO": "March 2020", "SOURCE": "CDPHE Health Facilities and Emergency Medical Services Division", "GEO_TRACT": "08041002300", "GEO_COUNTY": "EL PASO", "GEO_ZIP": "80903", "FACTYPE": "Federally Qualified Health Center", "SYMBOL": "FQHC", "Latitude": 38.824429, "Longitude": -104.828651, "TYPE": "FQHC" }, "geometry": { "type": "MultiPoint", "coordinates": [ [ -104.828651000307318, 38.824428999779144 ] ] } },
{ "type": "Feature", "properties": { "OBJECTID": 2983, "FAC_NAME": "PUEBLO COMMUNITY HEALTH CENTER (COZ5A4)", "NAME": "PUEBLO COMMUNITY HEALTH CENTER", "ADDRESS": "300 COLORADO AVENUE", "CITY_STATE": "PUEBLO, CO   81004", "CITY": "PUEBLO", "STATE": "CO", "ZIP": "81004", "OPERATING_": "01-ACTIVE", "MEDICARE": "Y", "MEDICARE_I": "061830", "MEDICAID": "N", "MEDICAID_I": null, "CERTIFIED_": "0\/0", "COUNTY": "PUEBLO", "ADMIN": "DONALD MOORE", "PHONE": "(719) 543-8711", "EMERGENCY_": "Donald Moore, COO", "EMERGENC_1": "(719) 251-9101", "EMERGENC_2": null, "EMERGENC_3": "dmoore@pueblochc.org", "DATE_GEOCO": "March 2020", "SOURCE": "CDPHE Health Facilities and Emergency Medical Services Division", "GEO_TRACT": "08101001900", "GEO_COUNTY": "PUEBLO", "GEO_ZIP": "81004", "FACTYPE": "Federally Qualified Health Center", "SYMBOL": "FQHC", "Latitude": 38.257629, "Longitude": -104.623787, "TYPE": "FQHC" }, "geometry": { "type": "MultiPoint", "coordinates": [ [ -104.623786999964835, 38.257629000076406 ] ] } },
{ "type": "Feature", "properties": { "OBJECTID": 2984, "FAC_NAME": "PUEBLO COMMUNITY HEALTH CENTER (COMODO)", "NAME": "PUEBLO COMMUNITY HEALTH CENTER", "ADDRESS": "310 COLORADO AVENUE", "CITY_STATE": "PUEBLO, CO   81004", "CITY": "PUEBLO", "STATE": "CO", "ZIP": "81004", "OPERATING_": "01-ACTIVE", "MEDICARE": "Y", "MEDICARE_I": "061831", "MEDICAID": "N", "MEDICAID_I": null, "CERTIFIED_": "0\/0", "COUNTY": "PUEBLO", "ADMIN": null, "PHONE": "(719) 543-8718", "EMERGENCY_": "Donald Moore", "EMERGENC_1": "(719) 251-9101", "EMERGENC_2": null, "EMERGENC_3": "dmoore@pueblochc.org", "DATE_GEOCO": "March 2020", "SOURCE": "CDPHE Health Facilities and Emergency Medical Services Division", "GEO_TRACT": "08101001900", "GEO_COUNTY": "PUEBLO", "GEO_ZIP": "81004", "FACTYPE": "Federally Qualified Health Center", "SYMBOL": "FQHC", "Latitude": 38.257542, "Longitude": -104.623894, "TYPE": "FQHC" }, "geometry": { "type": "MultiPoint", "coordinates": [ [ -104.62389400009495, 38.257542000272096 ] ] } },
{ "type": "Feature", "properties": { "OBJECTID": 509, "FAC_NAME": "UCHEALTH EMERGENCY ROOM - AURORA CENTRAL (18T312)", "NAME": "UCHEALTH EMERGENCY ROOM - AURORA CENTRAL", "ADDRESS": "15300 E MISSISSIPPI AVE", "CITY_STATE": "AURORA, CO   80017", "CITY": "AURORA", "STATE": "CO", "ZIP": "80017", "OPERATING_": "01-ACTIVE", "MEDICARE": "N", "MEDICARE_I": null, "MEDICAID": "N", "MEDICAID_I": null, "CERTIFIED_": "0\/7", "COUNTY": "ARAPAHOE", "ADMIN": "Mr CHRISTOPHER GESSNER", "PHONE": "(303) 671-4140", "EMERGENCY_": "Ask for admin on call", "EMERGENC_1": "(720) 848-0000", "EMERGENC_2": "(303) 671-4144", "EMERGENC_3": null, "DATE_GEOCO": "March 2020", "SOURCE": "CDPHE Health Facilities and Emergency Medical Services Division", "GEO_TRACT": "08005082200", "GEO_COUNTY": "ARAPAHOE", "GEO_ZIP": "80017", "FACTYPE": "Community Clinic\/Emergency", "SYMBOL": "Clinic", "Latitude": 39.696484, "Longitude": -104.809685, "TYPE": "CCEC" }, "geometry": { "type": "MultiPoint", "coordinates": [ [ -104.80968499996942, 39.696484000045515 ] ] } },
{ "type": "Feature", "properties": { "OBJECTID": 305, "FAC_NAME": "MCPN - South Aurora Family Health Services (COHXS0)", "NAME": "M C P N - SOUTH AURORA FAMILY HEALTH SERVICES", "ADDRESS": "15132 EAST HAMPDEN AVENUE, SUITE G", "CITY_STATE": "AURORA, CO   80014", "CITY": "AURORA", "STATE": "CO", "ZIP": "80014", "OPERATING_": "01-ACTIVE", "MEDICARE": "Y", "MEDICARE_I": "061891", "MEDICAID": "N", "MEDICAID_I": null, "CERTIFIED_": "0\/0", "COUNTY": "ARAPAHOE", "ADMIN": null, "PHONE": "(303) 752-8070", "EMERGENCY_": null, "EMERGENC_1": null, "EMERGENC_2": "(303) 752-8064", "EMERGENC_3": null, "DATE_GEOCO": "March 2020", "SOURCE": "CDPHE Health Facilities and Emergency Medical Services Division", "GEO_TRACT": "08005083800", "GEO_COUNTY": "ARAPAHOE", "GEO_ZIP": "80014", "FACTYPE": "Federally Qualified Health Center", "SYMBOL": "FQHC", "Latitude": 39.652954, "Longitude": -104.811729, "TYPE": "FQHC" }, "geometry": { "type": "MultiPoint", "coordinates": [ [ -104.811728999617458, 39.652954000221634 ] ] } },
{ "type": "Feature", "properties": { "OBJECTID": 2878, "FAC_NAME": "UCHEALTH EMERGENCY ROOM - WOODMEN (18H561)", "NAME": "UCHEALTH EMERGENCY ROOM - WOODMEN", "ADDRESS": "3790 E WOODMEN RD", "CITY_STATE": "COLORADO SPRINGS, CO   80920", "CITY": "COLORADO SPRINGS", "STATE": "CO", "ZIP": "80920", "OPERATING_": "01-ACTIVE", "MEDICARE": "N", "MEDICARE_I": null, "MEDICAID": "N", "MEDICAID_I": null, "CERTIFIED_": "0\/7", "COUNTY": "EL PASO", "ADMIN": "Mr JOEL YUHAS", "PHONE": "(719) 264-5080", "EMERGENCY_": null, "EMERGENC_1": null, "EMERGENC_2": "(719) 264-5084", "EMERGENC_3": null, "DATE_GEOCO": "March 2020", "SOURCE": "CDPHE Health Facilities and Emergency Medical Services Division", "GEO_TRACT": "08041006802", "GEO_COUNTY": "EL PASO", "GEO_ZIP": "80920", "FACTYPE": "Community Clinic\/Emergency", "SYMBOL": "Clinic", "Latitude": 38.938068, "Longitude": -104.756912, "TYPE": "CCEC" }, "geometry": { "type": "MultiPoint", "coordinates": [ [ -104.756911999858332, 38.938067999832626 ] ] } },
{ "type": "Feature", "properties": { "OBJECTID": 2626, "FAC_NAME": "Peak Vista Community Health Clinics - Myron Stratton Family Health Clinic (CO061904)", "NAME": "PEAK VISTA C H C - MYRON STRATTON FAMILY HEALTH CL", "ADDRESS": "410 GOLD PASS HEIGHTS", "CITY_STATE": "COLORADO SPRINGS, CO   80906", "CITY": "COLORADO SPRINGS", "STATE": "CO", "ZIP": "80906", "OPERATING_": "01-ACTIVE", "MEDICARE": "Y", "MEDICARE_I": "061904", "MEDICAID": "N", "MEDICAID_I": null, "CERTIFIED_": "0\/0", "COUNTY": "EL PASO", "ADMIN": null, "PHONE": "(719) 329-7139", "EMERGENCY_": null, "EMERGENC_1": null, "EMERGENC_2": null, "EMERGENC_3": null, "DATE_GEOCO": "March 2020", "SOURCE": "CDPHE Health Facilities and Emergency Medical Services Division", "GEO_TRACT": "08041003303", "GEO_COUNTY": "EL PASO", "GEO_ZIP": "80906", "FACTYPE": "Federally Qualified Health Center", "SYMBOL": "FQHC", "Latitude": 38.793018, "Longitude": -104.821548, "TYPE": "FQHC" }, "geometry": { "type": "MultiPoint", "coordinates": [ [ -104.821547999796238, 38.793017999885556 ] ] } },
{ "type": "Feature", "properties": { "OBJECTID": 1281, "FAC_NAME": "Colorado Coalition for the Homeless - Quigg Newton Clinic (COM5DB)", "NAME": "C C H - QUIGG NEWTON CLINIC", "ADDRESS": "4513 MARIPOSA WAY", "CITY_STATE": "DENVER, CO   80211", "CITY": "DENVER", "STATE": "CO", "ZIP": "80211", "OPERATING_": "01-ACTIVE", "MEDICARE": "Y", "MEDICARE_I": "061861", "MEDICAID": "N", "MEDICAID_I": null, "CERTIFIED_": "0\/0", "COUNTY": "DENVER", "ADMIN": null, "PHONE": "(303) 433-8180", "EMERGENCY_": null, "EMERGENC_1": null, "EMERGENC_2": null, "EMERGENC_3": null, "DATE_GEOCO": "March 2020", "SOURCE": "CDPHE Health Facilities and Emergency Medical Services Division", "GEO_TRACT": "08031000202", "GEO_COUNTY": "DENVER", "GEO_ZIP": "80211", "FACTYPE": "Federally Qualified Health Center", "SYMBOL": "FQHC", "Latitude": 39.779022, "Longitude": -105.002968, "TYPE": "FQHC" }, "geometry": { "type": "MultiPoint", "coordinates": [ [ -105.002967999619102, 39.779022000048862 ] ] } },
{ "type": "Feature", "properties": { "OBJECTID": 1282, "FAC_NAME": "LaCasa\/Quigg Newton Family Health Center (COXXYN)", "NAME": "LA CASA \/ QUIGG NEWTON FAMILY HEALTH CENTER", "ADDRESS": "4545 NAVAJO STREET", "CITY_STATE": "DENVER, CO   80211", "CITY": "DENVER", "STATE": "CO", "ZIP": "80211", "OPERATING_": "01-ACTIVE", "MEDICARE": "Y", "MEDICARE_I": "061828", "MEDICAID": "N", "MEDICAID_I": null, "CERTIFIED_": "0\/0", "COUNTY": "DENVER", "ADMIN": null, "PHONE": "(303) 436-8700", "EMERGENCY_": null, "EMERGENC_1": null, "EMERGENC_2": null, "EMERGENC_3": null, "DATE_GEOCO": "March 2020", "SOURCE": "CDPHE Health Facilities and Emergency Medical Services Division", "GEO_TRACT": "08031000202", "GEO_COUNTY": "DENVER", "GEO_ZIP": "80211", "FACTYPE": "Federally Qualified Health Center", "SYMBOL": "FQHC", "Latitude": 39.779171, "Longitude": -105.00425, "TYPE": "FQHC" }, "geometry": { "type": "MultiPoint", "coordinates": [ [ -105.004249999734142, 39.779170999968201 ] ] } },
{ "type": "Feature", "properties": { "OBJECTID": 1770, "FAC_NAME": "ROSE MEDICAL CENTER STAPLETON ER (18T750)", "NAME": "ROSE MEDICAL CENTER STAPLETON ER", "ADDRESS": "4930 WABASH ST", "CITY_STATE": "DENVER, CO   80238", "CITY": "DENVER", "STATE": "CO", "ZIP": "80238", "OPERATING_": "01-ACTIVE", "MEDICARE": "N", "MEDICARE_I": null, "MEDICAID": "N", "MEDICAID_I": null, "CERTIFIED_": "0\/11", "COUNTY": "DENVER", "ADMIN": "Mr RYAN TOBIN", "PHONE": "(303) 577-1500", "EMERGENCY_": null, "EMERGENC_1": null, "EMERGENC_2": "(303) 577-1590", "EMERGENC_3": null, "DATE_GEOCO": "March 2020", "SOURCE": "CDPHE Health Facilities and Emergency Medical Services Division", "GEO_TRACT": "08031004107", "GEO_COUNTY": "DENVER", "GEO_ZIP": "80238", "FACTYPE": "Community Clinic\/Emergency", "SYMBOL": "Clinic", "Latitude": 39.785915, "Longitude": -104.889153, "TYPE": "CCEC" }, "geometry": { "type": "MultiPoint", "coordinates": [ [ -104.889153000020102, 39.785915000017376 ] ] } },
{ "type": "Feature", "properties": { "OBJECTID": 1792, "FAC_NAME": "Montbello Family Health Center (COED2O)", "NAME": "MONTBELLO FAMILY HEALTH CENTER", "ADDRESS": "12600 EAST ALBROOK DRIVE", "CITY_STATE": "DENVER, CO   80239", "CITY": "DENVER", "STATE": "CO", "ZIP": "80239", "OPERATING_": "01-ACTIVE", "MEDICARE": "Y", "MEDICARE_I": "061848", "MEDICAID": "N", "MEDICAID_I": null, "CERTIFIED_": "0\/0", "COUNTY": "DENVER", "ADMIN": null, "PHONE": "(720) 956-2730", "EMERGENCY_": null, "EMERGENC_1": null, "EMERGENC_2": null, "EMERGENC_3": null, "DATE_GEOCO": "March 2020", "SOURCE": "CDPHE Health Facilities and Emergency Medical Services Division", "GEO_TRACT": "08031008312", "GEO_COUNTY": "DENVER", "GEO_ZIP": "80239", "FACTYPE": "Federally Qualified Health Center", "SYMBOL": "FQHC", "Latitude": 39.781448, "Longitude": -104.843529, "TYPE": "FQHC" }, "geometry": { "type": "MultiPoint", "coordinates": [ [ -104.843528999552532, 39.781448000119916 ] ] } },
{ "type": "Feature", "properties": { "OBJECTID": 2553, "FAC_NAME": "PEAK VISTA COMMUNITY HEALTH CENTERS (COYIBB)", "NAME": "HEALTH CENTER AT LIMON", "ADDRESS": "820 FIRST STREET", "CITY_STATE": "LIMON, CO   80828", "CITY": "LIMON", "STATE": "CO", "ZIP": "80828", "OPERATING_": "01-ACTIVE", "MEDICARE": "Y", "MEDICARE_I": "061881", "MEDICAID": "N", "MEDICAID_I": null, "CERTIFIED_": "0\/0", "COUNTY": "LINCOLN", "ADMIN": null, "PHONE": "(719) 775-2367", "EMERGENCY_": "Linda Messer", "EMERGENC_1": "(719) 775-2367", "EMERGENC_2": null, "EMERGENC_3": "lmesser@plainsmedicalcenter.com", "DATE_GEOCO": "March 2020", "SOURCE": "CDPHE Health Facilities and Emergency Medical Services Division", "GEO_TRACT": "08073961700", "GEO_COUNTY": "LINCOLN", "GEO_ZIP": "80828", "FACTYPE": "Federally Qualified Health Center", "SYMBOL": "FQHC", "Latitude": 39.260876, "Longitude": -103.686859, "TYPE": "FQHC" }, "geometry": { "type": "MultiPoint", "coordinates": [ [ -103.686858999694962, 39.260876000316472 ] ] } },
{ "type": "Feature", "properties": { "OBJECTID": 2804, "FAC_NAME": "Peak Vista C H C - Peak Vista Senior Clinic North (CO061892)", "NAME": "PEAK VISTA C H C - PEAK VISTA SENIOR CLINIC NORTH", "ADDRESS": "5636 NORTH UNION BOULEVARD", "CITY_STATE": "COLORADO SPRINGS, CO   80918", "CITY": "COLORADO SPRINGS", "STATE": "CO", "ZIP": "80918", "OPERATING_": "01-ACTIVE", "MEDICARE": "Y", "MEDICARE_I": "061892", "MEDICAID": "N", "MEDICAID_I": null, "CERTIFIED_": "0\/0", "COUNTY": "EL PASO", "ADMIN": null, "PHONE": "(719) 329-7156", "EMERGENCY_": "Clint Peterson", "EMERGENC_1": "(719) 332-0480", "EMERGENC_2": "(719) 228-6670", "EMERGENC_3": "cpeterson@peakvista.org", "DATE_GEOCO": "March 2020", "SOURCE": "CDPHE Health Facilities and Emergency Medical Services Division", "GEO_TRACT": "08041004800", "GEO_COUNTY": "EL PASO", "GEO_ZIP": "80918", "FACTYPE": "Federally Qualified Health Center", "SYMBOL": "FQHC", "Latitude": 38.913567, "Longitude": -104.775414, "TYPE": "FQHC" }, "geometry": { "type": "MultiPoint", "coordinates": [ [ -104.775413999690727, 38.913566999663793 ] ] } },
{ "type": "Feature", "properties": { "OBJECTID": 3230, "FAC_NAME": "BUENA VISTA HEALTH CENTER (0709WT)", "NAME": "BUENA VISTA HEALTH CENTER", "ADDRESS": "28374 COUNTY ROAD 317", "CITY_STATE": "BUENA VISTA, CO   81211", "CITY": "BUENA VISTA", "STATE": "CO", "ZIP": "81211", "OPERATING_": "01-ACTIVE", "MEDICARE": "Y", "MEDICARE_I": "063986", "MEDICAID": "N", "MEDICAID_I": null, "CERTIFIED_": "0\/0", "COUNTY": "CHAFFEE", "ADMIN": "Ms KARYN BREZNAU", "PHONE": "(719) 395-9048", "EMERGENCY_": "Karyn Breznau", "EMERGENC_1": "(719) 395-9048", "EMERGENC_2": "(719) 395-9064", "EMERGENC_3": "kbreznan@svghd.org", "DATE_GEOCO": "March 2020", "SOURCE": "CDPHE Health Facilities and Emergency Medical Services Division", "GEO_TRACT": "08015000402", "GEO_COUNTY": "CHAFFEE", "GEO_ZIP": "81211", "FACTYPE": "Rural Health Clinic", "SYMBOL": "Clinic", "Latitude": 38.830002, "Longitude": -106.122292, "TYPE": "RHC" }, "geometry": { "type": "MultiPoint", "coordinates": [ [ -106.122292000403434, 38.830002000056155 ] ] } },
{ "type": "Feature", "properties": { "OBJECTID": 1221, "FAC_NAME": "Eastside Family Health Center (COT32C)", "NAME": "EASTSIDE FAMILY HEALTH CENTER", "ADDRESS": "501 28TH ST", "CITY_STATE": "DENVER, CO   80205", "CITY": "DENVER", "STATE": "CO", "ZIP": "80205", "OPERATING_": "01-ACTIVE", "MEDICARE": "Y", "MEDICARE_I": "061822", "MEDICAID": "N", "MEDICAID_I": null, "CERTIFIED_": "0\/0", "COUNTY": "DENVER", "ADMIN": null, "PHONE": "(303) 297-1241", "EMERGENCY_": null, "EMERGENC_1": null, "EMERGENC_2": null, "EMERGENC_3": null, "DATE_GEOCO": "March 2020", "SOURCE": "CDPHE Health Facilities and Emergency Medical Services Division", "GEO_TRACT": "08031002403", "GEO_COUNTY": "DENVER", "GEO_ZIP": "80205", "FACTYPE": "Federally Qualified Health Center", "SYMBOL": "FQHC", "Latitude": 39.755138, "Longitude": -104.975922, "TYPE": "FQHC" }, "geometry": { "type": "MultiPoint", "coordinates": [ [ -104.975922000050261, 39.755138000213996 ] ] } },
{ "type": "Feature", "properties": { "OBJECTID": 573, "FAC_NAME": "CHILDREN'S HOSPITAL COLORADO NORTH CAMPUS COMMUNITY CLINIC (18F110)", "NAME": "CHILDREN'S HOSPITAL COLORADO NORTH CAMPUS CLINIC", "ADDRESS": "469 W STATE HWY 7, STE 1", "CITY_STATE": "BROOMFIELD, CO   80023", "CITY": "BROOMFIELD", "STATE": "CO", "ZIP": "80023", "OPERATING_": "01-ACTIVE", "MEDICARE": "N", "MEDICARE_I": null, "MEDICAID": "Y", "MEDICAID_I": "65174038", "CERTIFIED_": "0\/6", "COUNTY": "ADAMS", "ADMIN": "Ms SUZY JAEGER", "PHONE": "(720) 777-1340", "EMERGENCY_": "jana.paquet@childrenscolo", "EMERGENC_1": null, "EMERGENC_2": "(720) 777-9731", "EMERGENC_3": "Admi: jena.hausmann@childrenscolorado.org", "DATE_GEOCO": "March 2020", "SOURCE": "CDPHE Health Facilities and Emergency Medical Services Division", "GEO_TRACT": "08014031400", "GEO_COUNTY": "BROOMFIELD", "GEO_ZIP": "80023", "FACTYPE": "Community Clinic", "SYMBOL": "Clinic", "Latitude": 40.000381, "Longitude": -104.992226, "TYPE": "CCINPT" }, "geometry": { "type": "MultiPoint", "coordinates": [ [ -104.992226000248849, 40.000380999729451 ] ] } },
{ "type": "Feature", "properties": { "OBJECTID": 2451, "FAC_NAME": "COLORADO PLAINS MEDICAL CENTER (010130)", "NAME": "COLORADO PLAINS MEDICAL CENTER", "ADDRESS": "1000 LINCOLN ST", "CITY_STATE": "FORT MORGAN, CO   80701", "CITY": "FORT MORGAN", "STATE": "CO", "ZIP": "80701", "OPERATING_": "01-ACTIVE", "MEDICARE": "Y", "MEDICARE_I": "060044", "MEDICAID": "Y", "MEDICAID_I": "64953238", "CERTIFIED_": "50\/50", "COUNTY": "MORGAN", "ADMIN": "Mr KEVIN ZACHARY", "PHONE": "(970) 867-3391", "EMERGENCY_": "Administrator on call", "EMERGENC_1": "(970) 768-3391", "EMERGENC_2": "(970) 542-3306", "EMERGENC_3": "gene.ohara@lpnt.net", "DATE_GEOCO": "March 2020", "SOURCE": "CDPHE Health Facilities and Emergency Medical Services Division", "GEO_TRACT": "08087000400", "GEO_COUNTY": "MORGAN", "GEO_ZIP": "80701", "FACTYPE": "Hospital", "SYMBOL": "Hospital", "Latitude": 40.259415, "Longitude": -103.796135, "TYPE": "HOSP-ACU" }, "geometry": { "type": "MultiPoint", "coordinates": [ [ -103.796134999911246, 40.259414999711041 ] ] } },
{ "type": "Feature", "properties": { "OBJECTID": 1417, "FAC_NAME": "Veterans Administration Hospital (COPSL8)", "NAME": "V A HOSPITAL", "ADDRESS": "1055 CLERMONT ST", "CITY_STATE": "DENVER, CO   80220", "CITY": "DENVER", "STATE": "CO", "ZIP": "80220", "OPERATING_": "01-ACTIVE", "MEDICARE": "Y", "MEDICARE_I": "06005F", "MEDICAID": "N", "MEDICAID_I": null, "CERTIFIED_": "0\/0", "COUNTY": "DENVER", "ADMIN": null, "PHONE": "(303) 000-0000", "EMERGENCY_": null, "EMERGENC_1": null, "EMERGENC_2": null, "EMERGENC_3": null, "DATE_GEOCO": "March 2020", "SOURCE": "CDPHE Health Facilities and Emergency Medical Services Division", "GEO_TRACT": "08031004301", "GEO_COUNTY": "DENVER", "GEO_ZIP": "80220", "FACTYPE": "Hospital - non participating", "SYMBOL": "Hospital", "Latitude": 39.732353, "Longitude": -104.935181, "TYPE": "HOSP-NP" }, "geometry": { "type": "MultiPoint", "coordinates": [ [ -104.935180999820361, 39.732353000222773 ] ] } },
{ "type": "Feature", "properties": { "OBJECTID": 562, "FAC_NAME": "Plan De Salud Del Valle (061951)", "NAME": "SALUD FAMILY HEALTH CENTERS", "ADDRESS": "4371 EAST 72ND AVENUE", "CITY_STATE": "COMMERCE CITY, CO   80022", "CITY": "COMMERCE CITY", "STATE": "CO", "ZIP": "80022", "OPERATING_": "01-ACTIVE", "MEDICARE": "Y", "MEDICARE_I": "061951", "MEDICAID": "N", "MEDICAID_I": null, "CERTIFIED_": "0\/0", "COUNTY": "ADAMS", "ADMIN": null, "PHONE": "(303) 892-6401", "EMERGENCY_": null, "EMERGENC_1": null, "EMERGENC_2": null, "EMERGENC_3": "pfaulkner@saludclinic.org", "DATE_GEOCO": "March 2020", "SOURCE": "CDPHE Health Facilities and Emergency Medical Services Division", "GEO_TRACT": "08001008901", "GEO_COUNTY": "ADAMS", "GEO_ZIP": "80022", "FACTYPE": "Federally Qualified Health Center", "SYMBOL": "FQHC", "Latitude": 39.827301, "Longitude": -104.936714, "TYPE": "FQHC" }, "geometry": { "type": "MultiPoint", "coordinates": [ [ -104.936714000005551, 39.827301000043384 ] ] } },
{ "type": "Feature", "properties": { "OBJECTID": 1419, "FAC_NAME": "ROSE MEDICAL CENTER (010428)", "NAME": "ROSE MEDICAL CENTER", "ADDRESS": "4567 E 9TH AVE", "CITY_STATE": "DENVER, CO   80220", "CITY": "DENVER", "STATE": "CO", "ZIP": "80220", "OPERATING_": "01-ACTIVE", "MEDICARE": "Y", "MEDICARE_I": "060032", "MEDICAID": "Y", "MEDICAID_I": "38977320", "CERTIFIED_": "422\/422", "COUNTY": "DENVER", "ADMIN": "Mr RYAN TOBIN", "PHONE": "(303) 320-2121", "EMERGENCY_": "Nursing Supervisor", "EMERGENC_1": "(303) 320-2018", "EMERGENC_2": "(303) 320-2200", "EMERGENC_3": "Admin- kenneth.feiler@healthonecares.com", "DATE_GEOCO": "March 2020", "SOURCE": "CDPHE Health Facilities and Emergency Medical Services Division", "GEO_TRACT": "08031004301", "GEO_COUNTY": "DENVER", "GEO_ZIP": "80220", "FACTYPE": "Hospital", "SYMBOL": "Hospital", "Latitude": 39.731129, "Longitude": -104.934334, "TYPE": "HOSP-ACU" }, "geometry": { "type": "MultiPoint", "coordinates": [ [ -104.934333999898541, 39.731128999740726 ] ] } },
{ "type": "Feature", "properties": { "OBJECTID": 3083, "FAC_NAME": "ARKANSAS VALLEY FAMILY PRACTICE, LLC (07M208)", "NAME": "ARKANSAS VALLEY FAMILY PRACTICE LLC", "ADDRESS": "2317 SAN JUAN AVE", "CITY_STATE": "LA JUNTA, CO   81050", "CITY": "LA JUNTA", "STATE": "CO", "ZIP": "81050", "OPERATING_": "01-ACTIVE", "MEDICARE": "Y", "MEDICARE_I": "063873", "MEDICAID": "N", "MEDICAID_I": null, "CERTIFIED_": "0\/0", "COUNTY": "OTERO", "ADMIN": "Ms CASEY PHILLIPS", "PHONE": "(719) 383-2325", "EMERGENCY_": null, "EMERGENC_1": null, "EMERGENC_2": "(719) 383-2327", "EMERGENC_3": "reggie2018@hotmail.com", "DATE_GEOCO": "March 2020", "SOURCE": "CDPHE Health Facilities and Emergency Medical Services Division", "GEO_TRACT": "08089968300", "GEO_COUNTY": "OTERO", "GEO_ZIP": "81050", "FACTYPE": "Rural Health Clinic", "SYMBOL": "Clinic", "Latitude": 37.966515, "Longitude": -103.546402, "TYPE": "RHC" }, "geometry": { "type": "MultiPoint", "coordinates": [ [ -103.546401999859825, 37.966514999703357 ] ] } },
{ "type": "Feature", "properties": { "OBJECTID": 1379, "FAC_NAME": "SAINT JOSEPH HOSPITAL (010430)", "NAME": "SAINT JOSEPH HOSPITAL", "ADDRESS": "1375 E 19TH AVE", "CITY_STATE": "DENVER, CO   80218", "CITY": "DENVER", "STATE": "CO", "ZIP": "80218", "OPERATING_": "01-ACTIVE", "MEDICARE": "Y", "MEDICARE_I": "060028", "MEDICAID": "Y", "MEDICAID_I": "5028006", "CERTIFIED_": "400\/400", "COUNTY": "DENVER", "ADMIN": "Mr JAMESON SMITH", "PHONE": "(303) 812-2000", "EMERGENCY_": "Chris Vittum, RN, MS", "EMERGENC_1": "(303) 947-8516", "EMERGENC_2": "(303) 812-4296", "EMERGENC_3": "Alt office phone is 3038668890 : jameson.smith@sclhs.net", "DATE_GEOCO": "March 2020", "SOURCE": "CDPHE Health Facilities and Emergency Medical Services Division", "GEO_TRACT": "08031003102", "GEO_COUNTY": "DENVER", "GEO_ZIP": "80218", "FACTYPE": "Hospital", "SYMBOL": "Hospital", "Latitude": 39.745811, "Longitude": -104.971169, "TYPE": "HOSP-ACU" }, "geometry": { "type": "MultiPoint", "coordinates": [ [ -104.971169000407258, 39.745811000017497 ] ] } },
{ "type": "Feature", "properties": { "OBJECTID": 2453, "FAC_NAME": "Plan De Salud Del Valle Inc (061981)", "NAME": "SALUD COLUMBINE ELEMENTARY SCHOOL", "ADDRESS": "815 WEST STREET", "CITY_STATE": "FORT MORGAN, CO   80701", "CITY": "FORT MORGAN", "STATE": "CO", "ZIP": "80701", "OPERATING_": "01-ACTIVE", "MEDICARE": "Y", "MEDICARE_I": "061981", "MEDICAID": "N", "MEDICAID_I": null, "CERTIFIED_": "0\/0", "COUNTY": "MORGAN", "ADMIN": null, "PHONE": "(303) 892-6401", "EMERGENCY_": null, "EMERGENC_1": null, "EMERGENC_2": null, "EMERGENC_3": null, "DATE_GEOCO": "March 2020", "SOURCE": "CDPHE Health Facilities and Emergency Medical Services Division", "GEO_TRACT": "08087000400", "GEO_COUNTY": "MORGAN", "GEO_ZIP": "80701", "FACTYPE": "Federally Qualified Health Center", "SYMBOL": "FQHC", "Latitude": 40.257, "Longitude": -103.810928, "TYPE": "FQHC" }, "geometry": { "type": "MultiPoint", "coordinates": [ [ -103.810927999665964, 40.256999999800414 ] ] } },
{ "type": "Feature", "properties": { "OBJECTID": 1114, "FAC_NAME": "UCHEALTH HIGHLANDS RANCH HOSPITAL (01G933)", "NAME": "UCHEALTH HIGHLANDS RANCH HOSPITAL", "ADDRESS": "1500 PARK CENTRAL DR", "CITY_STATE": "HIGHLANDS RANCH, CO   80129", "CITY": "HIGHLANDS RANCH", "STATE": "CO", "ZIP": "80129", "OPERATING_": "01-ACTIVE", "MEDICARE": "Y", "MEDICARE_I": "060132", "MEDICAID": "N", "MEDICAID_I": null, "CERTIFIED_": "0\/87", "COUNTY": "ADAMS", "ADMIN": "Ms DIANE COOKSON", "PHONE": "(720) 516-1000", "EMERGENCY_": null, "EMERGENC_1": null, "EMERGENC_2": "(720) 516-0115", "EMERGENC_3": null, "DATE_GEOCO": "March 2020", "SOURCE": "CDPHE Health Facilities and Emergency Medical Services Division", "GEO_TRACT": "08035014131", "GEO_COUNTY": "DOUGLAS", "GEO_ZIP": "80129", "FACTYPE": "Hospital", "SYMBOL": "Hospital", "Latitude": 39.552723, "Longitude": -105.004242, "TYPE": "HOSP-ACU" }, "geometry": { "type": "MultiPoint", "coordinates": [ [ -105.004242000236516, 39.552723000189289 ] ] } },
{ "type": "Feature", "properties": { "OBJECTID": 1204, "FAC_NAME": "DENVER INDIAN HEALTH AND FAMILY SERVICES (1804GC)", "NAME": "DENVER INDIAN HEALTH AND FAMILY SERVICES", "ADDRESS": "2880 W HOLDEN PL", "CITY_STATE": "DENVER, CO   80204", "CITY": "DENVER", "STATE": "CO", "ZIP": "80204", "OPERATING_": "01-ACTIVE", "MEDICARE": "N", "MEDICARE_I": null, "MEDICAID": "N", "MEDICAID_I": null, "CERTIFIED_": "0\/0", "COUNTY": "DENVER", "ADMIN": "Ms ADRIANNE MADDUX", "PHONE": "(303) 953-6600", "EMERGENCY_": "Delbert Nutter", "EMERGENC_1": "(303) 953-6612", "EMERGENC_2": "(303) 781-4333", "EMERGENC_3": "dnutter@dihfs.org", "DATE_GEOCO": "March 2020", "SOURCE": "CDPHE Health Facilities and Emergency Medical Services Division", "GEO_TRACT": "08031000800", "GEO_COUNTY": "DENVER", "GEO_ZIP": "80204", "FACTYPE": "Community Clinic", "SYMBOL": "Clinic", "Latitude": 39.735619, "Longitude": -105.024185, "TYPE": "CCVOL" }, "geometry": { "type": "MultiPoint", "coordinates": [ [ -105.024185000192588, 39.735619000144276 ] ] } },
{ "type": "Feature", "properties": { "OBJECTID": 1205, "FAC_NAME": "Westside Family Health Center (CO6DNX)", "NAME": "WESTSIDE FAMILY HEALTH CENTER", "ADDRESS": "1100 FEDERAL BOULEVARD", "CITY_STATE": "DENVER, CO   80204", "CITY": "DENVER", "STATE": "CO", "ZIP": "80204", "OPERATING_": "01-ACTIVE", "MEDICARE": "Y", "MEDICARE_I": "061829", "MEDICAID": "N", "MEDICAID_I": null, "CERTIFIED_": "0\/0", "COUNTY": "DENVER", "ADMIN": null, "PHONE": "(303) 436-4200", "EMERGENCY_": null, "EMERGENC_1": null, "EMERGENC_2": null, "EMERGENC_3": null, "DATE_GEOCO": "March 2020", "SOURCE": "CDPHE Health Facilities and Emergency Medical Services Division", "GEO_TRACT": "08031000800", "GEO_COUNTY": "DENVER", "GEO_ZIP": "80204", "FACTYPE": "Federally Qualified Health Center", "SYMBOL": "FQHC", "Latitude": 39.734829, "Longitude": -105.025131, "TYPE": "FQHC" }, "geometry": { "type": "MultiPoint", "coordinates": [ [ -105.025130999848614, 39.734829000329597 ] ] } },
{ "type": "Feature", "properties": { "OBJECTID": 3442, "FAC_NAME": "COMMUNITY HOSPITAL (011119)", "NAME": "COMMUNITY HOSPITAL", "ADDRESS": "2351 'G' ROAD", "CITY_STATE": "GRAND JUNCTION, CO   81505", "CITY": "GRAND JUNCTION", "STATE": "CO", "ZIP": "81505", "OPERATING_": "01-ACTIVE", "MEDICARE": "Y", "MEDICARE_I": "060054", "MEDICAID": "Y", "MEDICAID_I": "5054002", "CERTIFIED_": "60\/60", "COUNTY": "MESA", "ADMIN": "Mr CHRIS THOMAS", "PHONE": "(970) 256-6201", "EMERGENCY_": "Chris Thomas", "EMERGENC_1": "(970) 623-5265", "EMERGENC_2": "(970) 256-6501", "EMERGENC_3": "cthomas@gjhosp.org", "DATE_GEOCO": "March 2020", "SOURCE": "CDPHE Health Facilities and Emergency Medical Services Division", "GEO_TRACT": "08077000900", "GEO_COUNTY": "MESA", "GEO_ZIP": "81505", "FACTYPE": "Hospital", "SYMBOL": "Hospital", "Latitude": 39.106239, "Longitude": -108.617203, "TYPE": "HOSP-ACU" }, "geometry": { "type": "MultiPoint", "coordinates": [ [ -108.617202999554195, 39.10623900022641 ] ] } },
{ "type": "Feature", "properties": { "OBJECTID": 2472, "FAC_NAME": "SEDGWICK COUNTY MEMORIAL HOSPITAL (010170)", "NAME": "SEDGWICK COUNTY MEMORIAL HOSPITAL", "ADDRESS": "900 CEDAR ST", "CITY_STATE": "JULESBURG, CO   80737", "CITY": "JULESBURG", "STATE": "CO", "ZIP": "80737", "OPERATING_": "01-ACTIVE", "MEDICARE": "Y", "MEDICARE_I": "061310", "MEDICAID": "Y", "MEDICAID_I": "5052006", "CERTIFIED_": "15\/15", "COUNTY": "SEDGWICK", "ADMIN": "Mr NICK GOSHE, III", "PHONE": "(970) 474-3323", "EMERGENCY_": "Robert John Adlesich", "EMERGENC_1": "(971) 235-1537", "EMERGENC_2": "(970) 474-9974", "EMERGENC_3": "dgarnas@schealth.org", "DATE_GEOCO": "March 2020", "SOURCE": "CDPHE Health Facilities and Emergency Medical Services Division", "GEO_TRACT": "08115968300", "GEO_COUNTY": "SEDGWICK", "GEO_ZIP": "80737", "FACTYPE": "Critical Access Hospital", "SYMBOL": "Hospital", "Latitude": 40.993336, "Longitude": -102.268784, "TYPE": "HOSP-CAH" }, "geometry": { "type": "MultiPoint", "coordinates": [ [ -102.268783999754916, 40.993336000314848 ] ] } },
{ "type": "Feature", "properties": { "OBJECTID": 2475, "FAC_NAME": "VALLEY MEDICAL CLINIC (07018F)", "NAME": "VALLEY MEDICAL CLINIC", "ADDRESS": "116 E NINTH STREET", "CITY_STATE": "JULESBURG, CO   80737", "CITY": "JULESBURG", "STATE": "CO", "ZIP": "80737", "OPERATING_": "01-ACTIVE", "MEDICARE": "Y", "MEDICARE_I": "063995", "MEDICAID": "N", "MEDICAID_I": null, "CERTIFIED_": "0\/0", "COUNTY": "SEDGWICK", "ADMIN": "Mr DAVID GARNAS", "PHONE": "(970) 474-3376", "EMERGENCY_": "Deb Nail", "EMERGENC_1": "(970) 520-3242", "EMERGENC_2": "(970) 474-2461", "EMERGENC_3": "dnail@schealth.org", "DATE_GEOCO": "March 2020", "SOURCE": "CDPHE Health Facilities and Emergency Medical Services Division", "GEO_TRACT": "08115968300", "GEO_COUNTY": "SEDGWICK", "GEO_ZIP": "80737", "FACTYPE": "Rural Health Clinic", "SYMBOL": "Clinic", "Latitude": 40.993511, "Longitude": -102.26844, "TYPE": "RHC" }, "geometry": { "type": "MultiPoint", "coordinates": [ [ -102.268439999798318, 40.993510999738795 ] ] } },
{ "type": "Feature", "properties": { "OBJECTID": 2791, "FAC_NAME": "UCHEALTH EMERGENCY ROOM - POWERS (18T695)", "NAME": "UCHEALTH EMERGENCY ROOM - POWERS", "ADDRESS": "2770 N POWERS BLVD", "CITY_STATE": "COLORADO SPRINGS, CO   80922", "CITY": "COLORADO SPRINGS", "STATE": "CO", "ZIP": "80922", "OPERATING_": "01-ACTIVE", "MEDICARE": "N", "MEDICARE_I": null, "MEDICAID": "N", "MEDICAID_I": null, "CERTIFIED_": "0\/8", "COUNTY": "EL PASO", "ADMIN": "Mr JOEL YUHAS", "PHONE": "(719) 638-3000", "EMERGENCY_": "Kristen Law", "EMERGENC_1": "(719) 722-6319", "EMERGENC_2": "(719) 638-3004", "EMERGENC_3": null, "DATE_GEOCO": "March 2020", "SOURCE": "CDPHE Health Facilities and Emergency Medical Services Division", "GEO_TRACT": "08041005800", "GEO_COUNTY": "EL PASO", "GEO_ZIP": "80917", "FACTYPE": "Community Clinic\/Emergency", "SYMBOL": "Clinic", "Latitude": 38.873348, "Longitude": -104.720161, "TYPE": "CCEC" }, "geometry": { "type": "MultiPoint", "coordinates": [ [ -104.720160999913531, 38.873347999733433 ] ] } },
{ "type": "Feature", "properties": { "OBJECTID": 45, "FAC_NAME": "M C P N - Arvada Clinic (CO061899)", "NAME": "M C P N - ARVADA HEALTH CENTER", "ADDRESS": "11005 RALSTON ROAD, SUITE 1006", "CITY_STATE": "ARVADA, CO   80004", "CITY": "ARVADA", "STATE": "CO", "ZIP": "80004", "OPERATING_": "01-ACTIVE", "MEDICARE": "Y", "MEDICARE_I": "061899", "MEDICAID": "N", "MEDICAID_I": null, "CERTIFIED_": "0\/0", "COUNTY": "JEFFERSON", "ADMIN": null, "PHONE": "(303) 431-0844", "EMERGENCY_": null, "EMERGENC_1": null, "EMERGENC_2": "(303) 456-6124", "EMERGENC_3": null, "DATE_GEOCO": "March 2020", "SOURCE": "CDPHE Health Facilities and Emergency Medical Services Division", "GEO_TRACT": "08059010303", "GEO_COUNTY": "JEFFERSON", "GEO_ZIP": "80004", "FACTYPE": "Federally Qualified Health Center", "SYMBOL": "FQHC", "Latitude": 39.81284, "Longitude": -105.12178, "TYPE": "FQHC" }, "geometry": { "type": "MultiPoint", "coordinates": [ [ -105.121780000156946, 39.812839999736461 ] ] } },
{ "type": "Feature", "properties": { "OBJECTID": 146, "FAC_NAME": "MEDICAL CENTER OF AURORA, THE (010414)", "NAME": "MEDICAL CENTER OF AURORA, THE", "ADDRESS": "1501 S POTOMAC ST", "CITY_STATE": "AURORA, CO   80012", "CITY": "AURORA", "STATE": "CO", "ZIP": "80012", "OPERATING_": "01-ACTIVE", "MEDICARE": "Y", "MEDICARE_I": "060100", "MEDICAID": "Y", "MEDICAID_I": "5000104", "CERTIFIED_": "346\/346", "COUNTY": "ARAPAHOE", "ADMIN": "Mr RYAN SIMPSON", "PHONE": "(303) 873-5511", "EMERGENCY_": "Kathy Bilys", "EMERGENC_1": "(303) 671-4901", "EMERGENC_2": "(303) 368-2500", "EMERGENC_3": "katherine.bilys@healthonecares.com", "DATE_GEOCO": "March 2020", "SOURCE": "CDPHE Health Facilities and Emergency Medical Services Division", "GEO_TRACT": "08005080700", "GEO_COUNTY": "ARAPAHOE", "GEO_ZIP": "80012", "FACTYPE": "Hospital", "SYMBOL": "Hospital", "Latitude": 39.689266, "Longitude": -104.831215, "TYPE": "HOSP-ACU" }, "geometry": { "type": "MultiPoint", "coordinates": [ [ -104.831214999639045, 39.689265999807162 ] ] } },
{ "type": "Feature", "properties": { "OBJECTID": 2822, "FAC_NAME": "UCHEALTH GRANDVIEW HOSPITAL (01V343)", "NAME": "UCHEALTH GRANDVIEW HOSPITAL", "ADDRESS": "5623 PULPIT PEAK VIEW", "CITY_STATE": "COLORADO SPRINGS, CO   80918", "CITY": "COLORADO SPRINGS", "STATE": "CO", "ZIP": "80918", "OPERATING_": "01-ACTIVE", "MEDICARE": "Y", "MEDICARE_I": "060130", "MEDICAID": "N", "MEDICAID_I": null, "CERTIFIED_": "0\/22", "COUNTY": "EL PASO", "ADMIN": "Mr ANDREW RITCHIE", "PHONE": "(719) 272-3623", "EMERGENCY_": "Joel Yuhas", "EMERGENC_1": "(719) 365-1804", "EMERGENC_2": "(719) 272-3756", "EMERGENC_3": "derek.rushing@uchcolorado.com", "DATE_GEOCO": "March 2020", "SOURCE": "CDPHE Health Facilities and Emergency Medical Services Division", "GEO_TRACT": "08041000302", "GEO_COUNTY": "EL PASO", "GEO_ZIP": "80918", "FACTYPE": "Hospital", "SYMBOL": "Hospital", "Latitude": 38.910358, "Longitude": -104.816994, "TYPE": "HOSP-ACU" }, "geometry": { "type": "MultiPoint", "coordinates": [ [ -104.816994000344863, 38.910357999840159 ] ] } }
]
}
